CAPSCUOLA;CODICEISTITUTORIFERIMENTO;CODICESCUOLA;DENOMINAZIONEISTITUTORIFERIMENTO;DENOMINAZIONESCUOLA;DESCRIZIONECOMUNE;DESCRIZIONETIPOLOGIAGRADOISTRUZIONESCUOLA;INDIRIZZOEMAILSCUOLA;INDIRIZZOSCUOLA;PROVINCIA;REGIONE;SITOWEBSCUOLA; LONGITUDINE; LATITUDINE
31015;TVIC867006;TVEE867029;IC CONEGLIANO 2 GB CIMA;G. MAZZINI;CONEGLIANO;SCUOLA PRIMARIA;TVIC867006@istruzione.it;VIA T. VECELLIO 13/15;TREVISO;VENETO;www.icconegliano2cima.gov.it;12.302163;45.892625
37055;VRIC816001;VRIC816001;IC RONCO ALL'ADIGE;IC RONCO ALL'ADIGE;RONCO ALL'ADIGE;ISTITUTO COMPRENSIVO;VRIC816001@istruzione.it;VIALE      VITTORIO VENETO     19;VERONA;VENETO;Non Disponibile;11.25953;45.31823
37020;VRIC815005;VRMM815027;IC GREZZANA;ERBEZZO;ERBEZZO;SCUOLA PRIMO GRADO;VRIC815005@istruzione.it;VIALE RIMEMBRANZA 24;VERONA;VENETO;www.grezzanascuole.gov.it;11.015552;45.518215
35030;PDIC85100E;PDEE85103P;IST. COMPR. RUBANO - BUONARROTI;RUBANO-VILLAGUATTERA-AGAZZI;RUBANO;SCUOLA PRIMARIA;PDIC85100E@istruzione.it;VIA BOSCHETTA 2;PADOVA;VENETO;www.icrubano.it;11.815007;45.444639
30024;VEIC82600X;VEEE826034;ENRICO TOTI;EDMONDO DE AMICIS;MUSILE DI PIAVE;SCUOLA PRIMARIA;VEIC82600X@istruzione.it;PIAZZA 18 GIUGNO 2;VENEZIA;VENETO;www.ictoti.gov.it;12.5631;45.62259
30035;VEIC85600Q;VEEE85603X;I.C. GIOVANNI GABRIELI;ALESSANDRO MANZONI-BALLO';MIRANO;SCUOLA PRIMARIA;VEIC85600Q@istruzione.it;VIA E. TOTI 1;VENEZIA;VENETO;www.icgabrielimirano.gov.it;12.0716927;45.4589059
35020;PDIC85600N;PDEE85602R;IST.COMPR. MASERA' - PERLASCA;CA' MURA' - BERTIPAGLIA;MASERA' DI PADOVA;SCUOLA PRIMARIA;PDIC85600N@istruzione.it;VIA CA' MURA';PADOVA;VENETO;icsmasera.it;11.8839934;45.307209
31020;TVIC847001;TVEE847013;IC SAN VENDEMIANO;S. FRANCESCO;SAN VENDEMIANO;SCUOLA PRIMARIA;TVIC847001@istruzione.it;VIALE A. DE GASPERI;TREVISO;VENETO;www.icsanvendemiano.gov.it;12.2723584;45.9107224
37060;VRIC895002;VREE895025;IC MOZZECANE;MOZZECANE;MOZZECANE;SCUOLA PRIMARIA;VRIC895002@istruzione.it;VIA G. FERRONI;VERONA;VENETO;www.icmozzecane.gov.it;10.8166996;45.3058736
36060;VIIC84400R;VIMM84403X;IC LUSIANA  POZZA;SMS CROSARA/MAROSTICA;MAROSTICA;SCUOLA PRIMO GRADO;VIIC84400R@istruzione.it;VIA SISEMOL 110;VICENZA;VENETO;www.iclusiana.gov.it;11.6087437;45.7749832
45036;ROIC823007;ROEE823019;IC STIENTA;CARDUCCI GIOSUE' - FICAROLO;FICAROLO;SCUOLA PRIMARIA;ROIC823007@istruzione.it;VIA CIRCONVALLAZIONE GIGLIOLI N. 71/A;ROVIGO;VENETO;www.icstienta.it;11.4352979;44.9556355
30131;VEEE01000C;VEEE01000C;MARCO FOSCARINI (ANN.CONVITTO);MARCO FOSCARINI (ANN.CONVITTO);VENEZIA;SCUOLA PRIMARIA;VEEE01000C@istruzione.it;SESTIERE DI CANNAREGIO N. 4941;VENEZIA;VENETO;Non Disponibile;12.326393;45.4467816
30020;VEIC825004;VEMM825026;IPPOLITO NIEVO;MARCO POLO;PRAMAGGIORE;SCUOLA PRIMO GRADO;VEIC825004@istruzione.it;VIA LEOPARDI 60;VENEZIA;VENETO;www.icnievocinto.gov.it;12.729047;45.815792
37057;VRIC8AC00D;VRMM8AC01E;IC 01  SAN GIOVANNI LUPATOTO;S.GIOV. LUPATOTO L. DA VINCI;SAN GIOVANNI LUPATOTO;SCUOLA PRIMO GRADO;VRIC8AC00D@istruzione.it;VIA CA' DEI SORDI 16;VERONA;VENETO;IC1SGL.IT;11.040029;45.382561
37036;VRIC84000T;VREE840032;IC S.MARTINO B.A.;S.MARTINO B.A.SALVATORE TODARO;SAN MARTINO BUON ALBERGO;SCUOLA PRIMARIA;VRIC84000T@istruzione.it;VIA SERENA;VERONA;VENETO;http://nuke.icsanmartinoscuole.it/;11.0839348;45.4118762
36026;VIIC814001;VIEE814046;IC A. PALLADIO - POIANA;SUOR OLGA GUGELMO -POJANA M.-;POIANA MAGGIORE;SCUOLA PRIMARIA;VIIC814001@istruzione.it;VIA CALDUMARE;VICENZA;VENETO;icspojana.gov.it;11.5054215;45.2891487
37017;VRIC83400E;VRMM83402L;IC BARDOLINO;LAZISE - NAZARIO SAURO;LAZISE;SCUOLA PRIMO GRADO;VRIC83400E@istruzione.it;LOC.  LA PEZZA;VERONA;VENETO;icbardolino.gov.it;10.9109751;45.5585665
37022;VRIC83200V;VRAA83201Q;IC FUMANE - LORENZI B.;TORRE INCANTATA - FUMANE;FUMANE;SCUOLA INFANZIA;VRIC83200V@istruzione.it;VIA CASETTA  2;VERONA;VENETO;www.fumanescuola.it;10.8886046;45.542987
36073;VIIC82400G;VIAA82401C;IC CORNEDO CROSARA;IC CORNEDO - MUZZOLON;CORNEDO VICENTINO;SCUOLA INFANZIA;VIIC82400G@istruzione.it;PIAZZA S. MARCO;VICENZA;VENETO;www.iccrosaracornedo.gov.it;11.3282692;45.6301552
30174;VEIC875005;VEIC875005;I.C.  L.SPALLANZANI;I.C.  L.SPALLANZANI;VENEZIA;ISTITUTO COMPRENSIVO;VEIC875005@istruzione.it;VIA CIMA D'ASTA 8;VENEZIA;VENETO;Non Disponibile;12.2648141;45.5061314
30173;VEIS018005;VETN018019; ANDREA GRITTI ;ANDREA GRITTI;VENEZIA;ISTITUTO TECNICO PER IL TURISMO;VEIS018005@istruzione.it;VIA LUDOVICO ANTONIO MURATORI 7;VENEZIA;VENETO;www.istitutogritti.it;12.2685051;45.490335
37124;VRIC87500R;VRMM87501T;IC VR 02 SAVAL-PARONA;VR N.2 - PARONA;VERONA;SCUOLA PRIMO GRADO;VRIC87500R@istruzione.it;LARGO STAZIONE VECCHIA18;VERONA;VENETO;www.comprensivovr02.gov.it;10.94647;45.47856
37049;VRIC84600R;VRIC84600R;IC VILLA BARTOLOMEA;IC VILLA BARTOLOMEA;VILLA BARTOLOMEA;ISTITUTO COMPRENSIVO;VRIC84600R@istruzione.it;CORSO FRACCAROLI 58;VERONA;VENETO;Non Disponibile;11.3547035;45.1595345
36100;VIMM141007;VIMM706016;CPIA DI VICENZA;CASA CIRCONDARIALE C/O IC.BAROLINI;VICENZA;SCUOLA PRIMO GRADO;VIMM141007@istruzione.it;VIA DALLA SCOLA   150;VICENZA;VENETO;www.ic4barolini.it;11.5765991;45.5508825
36072;VIIC87800X;VIEE878012;IC A.FAEDO  CHIAMPO;CD CHIAMPO  - CAP.;CHIAMPO;SCUOLA PRIMARIA;VIIC87800X@istruzione.it;VIA T. DAL MOLIN N.42;VICENZA;VENETO;www.icchiampo.gov.it;11.279755;45.546897
30010;VEIC820001;VEIC820001;ANTONIO GRAMSCI;ANTONIO GRAMSCI;CAMPONOGARA;ISTITUTO COMPRENSIVO;VEIC820001@istruzione.it;VIA MATTEOTTI N. 51;VENEZIA;VENETO;Non Disponibile;12.0762197;45.3828696
35134;PDMM25500L;PDCT702006;CPIA DI PADOVA;CTP DI PADOVA (EX IC 3 BRIOSCO);PADOVA;CENTRO TERRITORIALE;PDMM25500L@istruzione.it;VIA LIPPI 11;PADOVA;VENETO;Non Disponibile;11.8832257;45.4311684
35020;PDIC85600N;PDEE85601Q;IST.COMPR. MASERA' - PERLASCA;MASERA'- GIUSEPPE MAZZINI;MASERA' DI PADOVA;SCUOLA PRIMARIA;PDIC85600N@istruzione.it;VIALE DELLE OLIMPIADI 34;PADOVA;VENETO;icsmasera.it;11.8683133;45.3164432
31050;TVIC82600X;TVMM826022;IC QUINTO DI TREVISO;SMS CRESPANIMORGANO (IC Q);MORGANO;SCUOLA PRIMO GRADO;TVIC82600X@istruzione.it;VIA A. DE LAZZARI 2;TREVISO;VENETO;www.icquintotv.gov.it;12.0841368;45.6364211
31033;TVIC816009;TVEE81601B;IC CASTELFRANCO V.TO 2;OSPEDALE ULSS 8;CASTELFRANCO VENETO;SCUOLA PRIMARIA;TVIC816009@istruzione.it;VIA OSPEDALE 18;TREVISO;VENETO;www.comprensivosarto.it;11.9274528;45.6776996
35010;PDIC861005;PDEE86104A;DI BORGORICCO;VILLANOVA DI CAMPOSAMPIERO;VILLANOVA DI CAMPOSAMPIERO;SCUOLA PRIMARIA;PDIC861005@istruzione.it;VIA GIOVANNI XXIII;PADOVA;VENETO;http://icborgoricco.net;11.9619329;45.4361083
32014;BLIC823004;BLMM823015;IC PONTE NELLE ALPI;SANDRO PERTINI;PONTE NELLE ALPI;SCUOLA PRIMO GRADO;BLIC823004@istruzione.it;VIA CANEVOI 41;BELLUNO;VENETO;WWW.ICPONTALPI.ORG;12.29838;46.17256
31100;TVIS019001;TVTF01901D;IS PALLADIO;I.T.I.S.PALLADIO;TREVISO;ISTITUTO TECNICO INDUSTRIALE;TVIS019001@istruzione.it;VIA A.TRONCONI;TREVISO;VENETO;www.palladio-tv.it;12.2216873;45.6787447
35013;PDIC896004;PDAA896033;CITTADELLA;CA' NAVE;CITTADELLA;SCUOLA INFANZIA;PDIC896004@istruzione.it;VIA MAZZINI 25;PADOVA;VENETO;www.iccittadella.gov.it;11.7853522;45.6387023
37022;VRIC83200V;VRIC83200V;IC FUMANE - LORENZI B.;IC FUMANE - LORENZI B.;FUMANE;ISTITUTO COMPRENSIVO;VRIC83200V@istruzione.it;VIA PIO BRUGNOLI   36;VERONA;VENETO;Non Disponibile;10.8855281;45.5432099
37050;VRIC843009;VRMM84301A;IC OPPEANO;ISOLA RIZZA;ISOLA RIZZA;SCUOLA PRIMO GRADO;VRIC843009@istruzione.it;VIA        G. MARCONI 209;VERONA;VENETO;www.icoppeano.gov.it;11.2821142;45.2176044
37055;VRIC816001;VREE816013;IC RONCO ALL'ADIGE;ALBARO;RONCO ALL'ADIGE;SCUOLA PRIMARIA;VRIC816001@istruzione.it;VIA DELLA LIBERTA';VERONA;VENETO;www.ic-ronco.gov.it;11.1885193;45.3529891
45014;ROIC80600D;ROEE80602L;PORTO VIRO;MORO ALDO - PORTO VIRO;PORTO VIRO;SCUOLA PRIMARIA;ROIC80600D@istruzione.it;VIA NELLO FREGNAN 15;ROVIGO;VENETO;www.icportoviro.it;12.2219758;45.025011
35020;PDIC853006;PDEE853029;DI DUE CARRARE;G.D'ANNUNZIO;DUE CARRARE;SCUOLA PRIMARIA;PDIC853006@istruzione.it;VIA ROMA 71;PADOVA;VENETO;www.icduecarrare.gov.it;11.868611;45.350544
35042;PDIC89300L;PDAA89304L;ESTE - G.PASCOLI;I.ALESSI;ESTE;SCUOLA INFANZIA;PDIC89300L@istruzione.it;VIA NEGRI 7;PADOVA;VENETO;www.ic-este.it;11.6577126;45.2284182
30141;VEIC81400N;VEEE81402R;I.C. U. FOSCOLO MURANO-BURANO;MONS.LUIGI CERUTTI - MURANO;VENEZIA;SCUOLA PRIMARIA;VEIC81400N@istruzione.it;CALLE CONVENTO 21;VENEZIA;VENETO;http://www.icmuranoburano.gov.it;12.3566505;45.4597002
30026;VEIC859007;VEAA859025;I.C.PORTOGRUARO 2 D.BERTOLINI;CARLO COLLODI;PORTOGRUARO;SCUOLA INFANZIA;VEIC859007@istruzione.it;VIA G. MERCALLI  2;VENEZIA;VENETO;www.icportogruaro2.it;12.8435955;45.7759365
36051;VIIC821004;VIMM821015;IC CREAZZO  MANZONI;SMS MANZONI CREAZZO;CREAZZO;SCUOLA PRIMO GRADO;VIIC821004@istruzione.it;VIA  MANZONI 1;VICENZA;VENETO;icscreazzo.gov.it;11.476896;45.53491
36031;VIIC86000P;VIAA86003N;IC DUEVILLE RONCALLI;PASSO DI RIVA  - DUEVILLE;DUEVILLE;SCUOLA INFANZIA;VIIC86000P@istruzione.it;VIA DE GASPERI;VICENZA;VENETO;ICRONCALLI.IT;11.570318;45.6428174
36012;VIVC020002;VIVC020002;CONVITTO ANNESSO IIS ASIAGO;CONVITTO ANNESSO IIS ASIAGO;ASIAGO;CONVITTO ANNESSO;VIVC020002@istruzione.it;VIA MATTEOTTI 155;VICENZA;VENETO;www.itgcanova.it;11.51243;45.87106
30126;VEIC840006;VEIC840006;I.C. FRANCA ONGARO;I.C. FRANCA ONGARO;VENEZIA;ISTITUTO COMPRENSIVO;VEIC840006@istruzione.it;VIA  SANDRO GALLO N. 34;VENEZIA;VENETO;Non Disponibile;12.3670556;45.4131148
35016;PDIC82800D;PDIC82800D;PIAZZOLA S. BRENTA L. BELLUDI;PIAZZOLA S. BRENTA L. BELLUDI;PIAZZOLA SUL BRENTA;ISTITUTO COMPRENSIVO;PDIC82800D@istruzione.it;VIA DEI CONTARINI 44;PADOVA;VENETO;Non Disponibile;11.783182;45.541065
35020;PDIC895008;PDEE89503C;ALBIGNASEGO;FALCONE E BORSELLINO;ALBIGNASEGO;SCUOLA PRIMARIA;PDIC895008@istruzione.it;VIA CARAVAGGIO 8;PADOVA;VENETO;www.icalbignasego.gov.it;11.8612664;45.3780282
32030;BLIC82000L;BLEE82003R;IC FONZASO;ARSIE';ARSIE';SCUOLA PRIMARIA;BLIC82000L@istruzione.it;P.ZZA MARCONI 1;BELLUNO;VENETO;www.istitutocomprensivofonzaso.it;11.757954;45.983675
31050;TVIC820001;TVMM820012;IC VEDELAGO;SMS DON BOSCO VEDELAGO;VEDELAGO;SCUOLA PRIMO GRADO;TVIC820001@istruzione.it;VIA        ALESSANDRO MANZONI  8;TREVISO;VENETO;www.icvedelago.gov.it;12.0867183;45.6339758
31044;TVIC87900C;TVEE87901E;IC MONTEBELLUNA 2;A. SERENA;MONTEBELLUNA;SCUOLA PRIMARIA;TVIC87900C@istruzione.it;VIA CROCIERA 1;TREVISO;VENETO;www.icmontebelluna2.gov.it;12.0716025;45.7804367
36062;VIIC84400R;VIMM84402V;IC LUSIANA  POZZA;DON ITALO GIRARDI;CONCO;SCUOLA PRIMO GRADO;VIIC84400R@istruzione.it;VIA  M.POLI  2;VICENZA;VENETO;www.iclusiana.gov.it;11.631692;45.7953803
36071;VIMM141007;VICT70200G;CPIA DI VICENZA;CTP DI ARZIGNANO (EX IC 2);ARZIGNANO;CENTRO TERRITORIALE;VIMM141007@istruzione.it;VIA 4 MARTIRI71;VICENZA;VENETO;Non Disponibile;11.3407099;45.5189676
36078;VIIC88000X;VIEE880023;IC 2  VALDAGNO;VALDAGNO  - PONTE DEI NORI;VALDAGNO;SCUOLA PRIMARIA;VIIC88000X@istruzione.it;VIA GRANEZZA 2;VICENZA;VENETO;www.icvaldagno2.it;11.30623;45.63387
31047;TVIC861007;TVMM861018;IC PONTE DI PIAVE;SMSNIEVOPONTE DI PIAVE (I.C.);PONTE DI PIAVE;SCUOLA PRIMO GRADO;TVIC861007@istruzione.it;VIA NICOLO' TOMMASEO 4;TREVISO;VENETO;www.pontepiavescuole.it;12.4632901;45.7185248
35139;PDIC87900A;PDMM87901B;I IC DI PADOVA PETRARCA;PETRARCA - I I.C.;PADOVA;SCUOLA PRIMO GRADO;PDIC87900A@istruzione.it;VIA CONCARIOLA9;PADOVA;VENETO;www.primoistitutocomprensivopetrarca.it;11.86871;45.40674
35010;PDIC84300G;PDIC84300G;ISTITUTO COMPRENS.  GRANTORTO;ISTITUTO COMPRENS.  GRANTORTO;GRANTORTO;ISTITUTO COMPRENSIVO;PDIC84300G@istruzione.it;VIA V.EMANUELE III  32;PADOVA;VENETO;Non Disponibile;11.73098;45.60049
31040;TVIC882008;TVEE88206G;IC VALDOBBIADENE;A. CANOVA;SEGUSINO;SCUOLA PRIMARIA;TVIC882008@istruzione.it;VIA RIVA SECCA 1;TREVISO;VENETO;www.icvaldobbiadene.gov.it;11.95286;45.91879
31100;TVIC870002;TVEE870036;IC TREVISO 1 A. MARTINI;BINDONI;TREVISO;SCUOLA PRIMARIA;TVIC870002@istruzione.it;P. LE COSTITUZIONE;TREVISO;VENETO;www.ic1martini.it;12.2308319;45.6933294
31040;TVIC85500X;TVMM855011;IC SALGAREDA;SMSMARTINISALGAREDA (I.C.);SALGAREDA;SCUOLA PRIMO GRADO;TVIC85500X@istruzione.it;PIAZZALE CAMILLO CIBIN 8;TREVISO;VENETO;www.icsalgareda.gov.it;12.4950003;45.7053724
31048;TVIC832007;TVEE832019;IC SAN BIAGIO DI CALLALTA;EUGENIO MONTALE;SAN BIAGIO DI CALLALTA;SCUOLA PRIMARIA;TVIC832007@istruzione.it;VIA 2 GIUGNO 47;TREVISO;VENETO;www.icsanbiagio.gov.it;12.3814342;45.6870333
37045;VRIS003003;VRTD003019;I.S.I.S.S. M. MINGHETTI;ISISS M.MINGHETTI SETTORE ECONOMICO;LEGNAGO;IST TEC COMMERCIALE E PER GEOMETRI;VRIS003003@istruzione.it;VIA        FRATTINI 45;VERONA;VENETO;www.minghettilegnago.it;11.3118876;45.1908969
35020;PDIC853006;PDMM853017;DI DUE CARRARE;DUE CARRARE A. MORO;DUE CARRARE;SCUOLA PRIMO GRADO;PDIC853006@istruzione.it;VIA ROMA 69;PADOVA;VENETO;www.icduecarrare.gov.it;11.8686908;45.3505844
31044;TVIS018005;TVRA018026;IS SARTOR;IPSASR M.LLUNA(S.C.I.S.SARTOR);MONTEBELLUNA;IST PROF PER L'AGRICOLTURA E L'AMBIENTE;TVIS018005@istruzione.it;VIA S.GAETANO N.156;TREVISO;VENETO;www.istitutoagrariosartor.it;12.0498978;45.7530069
37056;VRIC87100D;VREE87103N;IC SALIZZOLE;FRATELLI CORRA SALIZZOLE;SALIZZOLE;SCUOLA PRIMARIA;VRIC87100D@istruzione.it;VIA CASTELLO 15;VERONA;VENETO;www.icsalizzole.it;10.8155973;45.5753343
37036;VRIC84000T;VREE840021;IC S.MARTINO B.A.;S.MARTINO B.A.SALVO D'ACQUISTO;SAN MARTINO BUON ALBERGO;SCUOLA PRIMARIA;VRIC84000T@istruzione.it;VIA L. EINAUDI;VERONA;VENETO;http://nuke.icsanmartinoscuole.it/;11.1051785;45.4251579
36077;VIIC82300Q;VIAA82302N;IC ALTAVILLA VICENTINA- MARCONI;IC ALTAVILLA VIC.NA - MUNARI;ALTAVILLA VICENTINA;SCUOLA INFANZIA;VIIC82300Q@istruzione.it;VIA VICENZA;VICENZA;VENETO;WWW.SCUOLEALTAVILLA.IT;11.4820412;45.5158581
30031;VEIC867006;VEMM867017;I.C. DOLO;PADRE REGINALDO GIULIANI;DOLO;SCUOLA PRIMO GRADO;VEIC867006@istruzione.it;VIA IV NOVEMBRE 2;VENEZIA;VENETO;www.istitutocomprensivodolo.gov.it;12.0769494;45.4275678
32100;BLTD020002;BLTD020002;ITC P. F. CALVI;ITC P. F. CALVI;BELLUNO;ISTITUTO TECNICO COMMERCIALE;BLTD020002@istruzione.it;VIA CONCETTO MARCHESI 73;BELLUNO;VENETO;istitutocalvibelluno.it;12.193449;46.1382918
35129;PDIC883002;PDEE883025;VI IC DI PADOVA BRUNO CIARI;DAVILA-PD;PADOVA;SCUOLA PRIMARIA;PDIC883002@istruzione.it;VIA L. CALABRESI 5;PADOVA;VENETO;www.6istitutocomprensivopadova.gov.it;11.9214388;45.4330677
35035;PDIC85200A;PDIC85200A;DI MESTRINO;DI MESTRINO;MESTRINO;ISTITUTO COMPRENSIVO;PDIC85200A@istruzione.it;VIA DE GASPERI 17;PADOVA;VENETO;Non Disponibile;11.75835;45.45421
31015;TVMM140004;TVCT703004;CPIA ALBERTO MANZI DI TREVISO;CTP DI CONEGLIANO (EX IC 1 GRAVA);CONEGLIANO;CENTRO TERRITORIALE;TVMM140004@istruzione.it;VIA F.FILZI22;TREVISO;VENETO;Non Disponibile;12.3045912;45.8835436
31040;TVIC83700A;TVAA837017;IC GIAVERA DEL MONTELLO;SCUOLA INFANZIA;GIAVERA DEL MONTELLO;SCUOLA INFANZIA;TVIC83700A@istruzione.it;PIAZZA DON MARCO DAL MOLIN 1;TREVISO;VENETO;www.icgiavera.it;12.1402997;45.8326743
45030;ROIC80000E;ROEE80001L;CASTELMASSA;PIAZZA MARCONI G. - CENESELLI;CENESELLI;SCUOLA PRIMARIA;ROIC80000E@istruzione.it;PIAZZA MARCONI GUGLIELMO;ROVIGO;VENETO;www.comprensivocastelmassa.it;11.3697755;45.0132117
32030;BLIC814009;BLEE81402C;IC  PEDAVENA F. BERTON;MARGHERITA RUSCONI SEREN D.G.;SEREN DEL GRAPPA;SCUOLA PRIMARIA;BLIC814009@istruzione.it;VIA G. MARCONI;BELLUNO;VENETO;www.comprensivopedavena.it;11.8110178;46.0140006
37139;VRRH02000X;VRRH020509;ANGELO BERTI;ANGELO BERTI SERALE;VERONA;IST PROF PER I SERVIZI ALBERGHIERI E RISTORAZIONE;VRRH02000X@istruzione.it;VIA AEROPORTO BERARDI 51;VERONA;VENETO;http://www.bertivr.it;10.9419111;45.4589286
32030;BLIC82000L;BLAA82001D;IC FONZASO;RIVAI-ARSIE';ARSIE';SCUOLA INFANZIA;BLIC82000L@istruzione.it;VIA ANGOA 81;BELLUNO;VENETO;www.istitutocomprensivofonzaso.it;11.764044;45.9953762
35020;PDIC89400C;PDEE89404N;NICOLO' TOMMASEO;SCUOLA PRIMARIA E.DE AMICIS;ARRE;SCUOLA PRIMARIA;PDIC89400C@istruzione.it;VIA ROMA 103;PADOVA;VENETO;www.ictommaseo.gov.it;11.9968419;45.2942366
36030;VIIC83800D;VIEE83805Q;IC SARCEDO T. VECELLIO;A. FABRIS - ZUGLIANO - CAP.;ZUGLIANO;SCUOLA PRIMARIA;VIIC83800D@istruzione.it;PIAZZA  MARCONI 26;VICENZA;VENETO;www.icvecellio.gov.it;11.4889183;45.6508203
32036;BLIC83200V;BLAA83204V;IC  SEDICO;SCUOLA MATERNA SEDICO-ROE;SEDICO;SCUOLA INFANZIA;BLIC83200V@istruzione.it;VIA SOMMAVILLA;BELLUNO;VENETO;www.istitutocomprensivosedico-sospirolo.gov.it;11.9143829;46.3557202
35142;PDIC889001;PDEE889013;XII IC DI PADOVA DON BOSCO;DON BOSCO - PADOVA;PADOVA;SCUOLA PRIMARIA;PDIC889001@istruzione.it;VIA BRESSANONE 23;PADOVA;VENETO;www.ics12padova.gov.it;11.85172;45.38068
35043;PDIS00700L;PDTA00701C;IIS KENNEDY-MONSELICE;ITA (S.A. KENNEDY)-MONSELICE;MONSELICE;ISTITUTO TECNICO AGRARIO;PDIS00700L@istruzione.it;VIA VO' DEI BUFFI 6;PADOVA;VENETO;www.iiskennedy.it;11.7438415;45.2318452
31045;TVIC88100C;TVEE88101E;IC MOTTA DI LIVENZA;ALEANDRO - MOTTA DI L.;MOTTA DI LIVENZA;SCUOLA PRIMARIA;TVIC88100C@istruzione.it;VIA MANZONI 2;TREVISO;VENETO;icmottadilivenza.gov.it;12.6047517;45.7745606
31020;TVIC847001;TVEE847035;IC SAN VENDEMIANO;ENRICO FERMI;SAN VENDEMIANO;SCUOLA PRIMARIA;TVIC847001@istruzione.it;VIA G. MARCONI;TREVISO;VENETO;www.icsanvendemiano.gov.it;12.2650648;45.7322838
35013;PDIC896004;PDEE896016;CITTADELLA;CITTADELLA-L.CORNARO PISCOPIA;CITTADELLA;SCUOLA PRIMARIA;PDIC896004@istruzione.it;VIA ANGELO GABRIELLI 32;PADOVA;VENETO;www.iccittadella.gov.it;11.7759486;45.641797
35020;PDIC87000X;PDEE870012;ISTITUTO COMPRENSIVO CODEVIGO;FALCONE-BORSELLINO CODEVIGO;CODEVIGO;SCUOLA PRIMARIA;PDIC87000X@istruzione.it;VIA CARRARESI 1;PADOVA;VENETO;www.istitutocomprensivodicodevigo.gov.it;12.0968373;45.2660284
31033;TVRI010005;TVRI01050E;IPSIA GALILEI CASTELFRANCO VENETO;IPSIAGALILEISERALE CASTELFRANCO;CASTELFRANCO VENETO;IST PROF INDUSTRIA E ARTIGIANATO;TVRI010005@istruzione.it;VIA AVENALE 6;TREVISO;VENETO;www.ipsia-galilei.gov.gov.it;11.9262739;45.6781836
31021;TVIC87700R;TVEE877042;IC MOGLIANO 2 M.MINERBI;M. POLO;MOGLIANO VENETO;SCUOLA PRIMARIA;TVIC87700R@istruzione.it;VIA DELLA CHIESA 13;TREVISO;VENETO;www.icminerbi.gov.it;12.26921;45.5795716
30020;VEIC81900R;VEEE819031;ANDREA  PALLADIO;S. GIORGIO DI LIVENZA;CAORLE;SCUOLA PRIMARIA;VEIC81900R@istruzione.it;PIAZZA LIBERTA' - N. 4;VENEZIA;VENETO;www.scuolacaorle.gov.it;12.7961838;45.6523217
36100;VIIC86100E;VIMM86101G;IC VICENZA 6 - F. MUTTONI;SMS F. MUTTONI  VICENZA;VICENZA;SCUOLA PRIMO GRADO;VIIC86100E@istruzione.it;VIA MASSARIA 62;VICENZA;VENETO;www.ic6muttoni.gov.it;11.56204;45.55489
37141;VRIC88800V;VRAA88802R;IC VR 17 MONTORIO;MIZZOLE - AGAZZI;VERONA;SCUOLA INFANZIA;VRIC88800V@istruzione.it;VIA NICOLINI 4;VERONA;VENETO;vric88800v@istruzione.it;11.0595115;45.4773125
45018;ROIC81300L;ROAA81301D;PORTO TOLLE;SCARPARI - LOC. CA' TIEPOLO;PORTO TOLLE;SCUOLA INFANZIA;ROIC81300L@istruzione.it;VIA BOITO 4;ROVIGO;VENETO;www.icportotolle.it;12.3309413;44.9490901
31100;TVIC87300D;TVEE87303N;IC TREVISO 4   STEFANINI;G. PRATI;TREVISO;SCUOLA PRIMARIA;TVIC87300D@istruzione.it;VIA DEI MILLE 7;TREVISO;VENETO;www.ic4stefanini.gov.it;12.2547847;45.6645979
45010;ROIC807009;ROMM80703C;ISTITUTO COMPRENSIVO VILLADOSE;GIOVANNI XXIII  -  VILLADOSE;VILLADOSE;SCUOLA PRIMO GRADO;ROIC807009@istruzione.it;VIA DELLA PACE 22;ROVIGO;VENETO;www.icvilladose.gov.it;11.8918881;45.0749808
36040;VIIC813005;VIAA813034;IC MUTTONI. SAREGO;IC SAREGO - MONT.FARA;SAREGO;SCUOLA INFANZIA;VIIC813005@istruzione.it;VIA ANDREA PALLADIO 3;VICENZA;VENETO;www.icmuttonisarego.gov.it;11.5134779;45.35953
36061;VIIC88800E;VIIC88800E;IC 1  BASSANO DEL GRAPPA;IC 1  BASSANO DEL GRAPPA;BASSANO DEL GRAPPA;ISTITUTO COMPRENSIVO;VIIC88800E@istruzione.it;PIAZZALE TRENTO  21;VICENZA;VENETO;Non Disponibile;11.7382;45.76563
30038;VEIC86000B;VEEE86003G;I.C. SPINEA 1;C.GOLDONI - TEMPO PIENO;SPINEA;SCUOLA PRIMARIA;VEIC86000B@istruzione.it;VIA BELLINI 23;VENEZIA;VENETO;www.istitutocomprensivospinea1.gov.it;12.16369;45.48836
30027;VEIC824008;VEIC824008;ROMOLO  ONOR;ROMOLO  ONOR;SAN DONA' DI PIAVE;ISTITUTO COMPRENSIVO;VEIC824008@istruzione.it;VIA NAZARIO SAURO N. 11;VENEZIA;VENETO;Non Disponibile;12.5691508;45.6320912
32021;BLIC828007;BLEE828019;IC AGORDO A. PERTILE;TITO LIVIO BURATTINI;AGORDO;SCUOLA PRIMARIA;BLIC828007@istruzione.it;VIALE SOMMARIVA 15;BELLUNO;VENETO;www.istitutocomprensivoagordo.it;12.032983;46.283003
37054;VRIC857007;VRIC857007;IC NOGARA;IC NOGARA;NOGARA;ISTITUTO COMPRENSIVO;VRIC857007@istruzione.it;VIA G. GALILEI6;VERONA;VENETO;Non Disponibile;11.062897;45.1763941
36010;VIIC85200Q;VIAA85203P;IC ARSIERO  P.MAROCCO;IC ARSIERO -POSINA;POSINA;SCUOLA INFANZIA;VIIC85200Q@istruzione.it;VIA SAREGO;VICENZA;VENETO;http://www.icarsiero.gov.it;11.3316628;45.6786548
36061;VIIC88200G;VIIC88200G;IC 2   BASSANO DEL GRAPPA;IC 2   BASSANO DEL GRAPPA;BASSANO DEL GRAPPA;ISTITUTO COMPRENSIVO;VIIC88200G@istruzione.it;VIA MONS. RODOLFI;VICENZA;VENETO;Non Disponibile;11.7248667;45.7481435
35010;PDIC86400L;PDMM86402P;DI VILLAFRANCA PADOVANA;RITA LEVI MONTALCINI;CAMPODORO;SCUOLA PRIMO GRADO;PDIC86400L@istruzione.it;VIA DOURANDINA  45/47;PADOVA;VENETO;www.icvillafranca.it;11.751446;45.4946825
35142;PDIC887009;PDEE88701B;XI IC DI PADOVA  VIVALDI;V. ZANIBON;PADOVA;SCUOLA PRIMARIA;PDIC887009@istruzione.it;VIA SIRACUSA 12;PADOVA;VENETO;www.icvivaldi.it;11.8624153;45.3939357
37142;VRIC887003;VREE887026;IC VR 16 VALPANTENA;QUINTO - ALEARDI A.;VERONA;SCUOLA PRIMARIA;VRIC887003@istruzione.it;VIA VAJO ANGUILLA 7;VERONA;VENETO;www.ic16verona.gov.it;11.0175941;45.4950325
32032;BLIC83300P;BLAA83305Q;IC  FELTRE;TOMO;FELTRE;SCUOLA INFANZIA;BLIC83300P@istruzione.it;VIA CROSERE 12;BELLUNO;VENETO;www.comprensivofeltre.it;11.8950951;46.0044749
31100;TVIS019001;TVIS019001;IS PALLADIO;IS PALLADIO;TREVISO;ISTITUTO SUPERIORE;TVIS019001@istruzione.it;VIA  A.TRONCONI N. 22;TREVISO;VENETO;Non Disponibile;12.2214618;45.6788232
31020;TVIC86000B;TVEE86001D;IC SAN POLO  L.LUZZATTI;CESARE AMBROSETTO;SAN POLO DI PIAVE;SCUOLA PRIMARIA;TVIC86000B@istruzione.it;VIA ROMA 36;TREVISO;VENETO;www.icsanpolodipiave.gov.it;12.25839;45.71429
37045;VRIC89700N;VREE89701Q;IC 02 LEGNAGO;ETTORE RIELLO PORTO;LEGNAGO;SCUOLA PRIMARIA;VRIC89700N@istruzione.it;VIA GIORDANO BRUNO 3;VERONA;VENETO;www.legnago2.gov.it;11.3173911;45.1947662
45037;ROIC80000E;ROMM80005Q;CASTELMASSA;MELARA;MELARA;SCUOLA PRIMO GRADO;ROIC80000E@istruzione.it;VIALE GARIBALDI;ROVIGO;VENETO;www.comprensivocastelmassa.it;11.197933;45.0627285
37060;VRIC881004;VRIC881004;IC RITA LEVI MONTALCINI;IC RITA LEVI MONTALCINI;BUTTAPIETRA;ISTITUTO COMPRENSIVO;VRIC881004@istruzione.it;VIALE DELL'AGRICOLTURA 3;VERONA;VENETO;Non Disponibile;10.9824308;45.4182461
37023;VRIC815005;VRMM815016;IC GREZZANA;GREZZANA - G. PASCOLI;GREZZANA;SCUOLA PRIMO GRADO;VRIC815005@istruzione.it;VIA  GENERALE V. E. ROSSI 16;VERONA;VENETO;www.grezzanascuole.gov.it;11.0154283;45.5168554
30174;VEIC82700Q;VEEE82703X;GIULIO CESARE PAROLARI;RITA LEVI MONTALCINI;VENEZIA;SCUOLA PRIMARIA;VEIC82700Q@istruzione.it;VIA VICENTINO 3/G;VENEZIA;VENETO;www.icparolari.gov.it;12.1949946;45.5293131
30035;VEIC85600Q;VEEE856041;I.C. GIOVANNI GABRIELI;SILVIO PELLICO;MIRANO;SCUOLA PRIMARIA;VEIC85600Q@istruzione.it;VIA CHIESA 26;VENEZIA;VENETO;www.icgabrielimirano.gov.it;12.0530724;45.4915644
35026;PDIS003009;PDTD00301G;CATTANEO-MATTEI;ITC MATTEI (S.A. IS MONSELICE-CONSELVE);CONSELVE;ISTITUTO TECNICO COMMERCIALE;PDIS003009@istruzione.it;VIA        L. TRAVERSO 6;PADOVA;VENETO;www.iscattaneo.it;11.87437;45.23649
31020;TVIC847001;TVEE847024;IC SAN VENDEMIANO;G. VERDI;SAN VENDEMIANO;SCUOLA PRIMARIA;TVIC847001@istruzione.it;VIA GARIBALDI;TREVISO;VENETO;wwwicsanvendemiano.gov.it;12.3299475;45.8859008
36070;VIIC84600C;VIMM84601D;IC ALTISSIMO UNGARETTI;SMS UNGARETTI ALTISSIMO;ALTISSIMO;SCUOLA PRIMO GRADO;VIIC84600C@istruzione.it;VIA  BAUCI 27;VICENZA;VENETO;www.comprensivoungaretti.it;11.231285;45.615068
30121;VEEE01000C;VEEE01001D;MARCO FOSCARINI (ANN.CONVITTO);MARCO FOSCARINI (ANN. CONVITTO);VENEZIA;SCUOLA PRIMARIA;VEEE01000C@istruzione.it;SESTIERE CANNAREGIO 4941;VENEZIA;VENETO;convittofoscarini.it;12.326393;45.4467816
32010;BLIC81700R;BLEE817031;IC  FORNO DI ZOLDO;FRAZ. FUSINE - ZOLDO ALTO;ZOLDO ALTO;SCUOLA PRIMARIA;BLIC81700R@istruzione.it;VIA FUSINE 1;BELLUNO;VENETO;www.zoldoscuola.eu;12.1307556;46.3738662
30020;VEIC825004;VEMM825037;IPPOLITO NIEVO;LEONARDO DA VINCI;GRUARO;SCUOLA PRIMO GRADO;VEIC825004@istruzione.it;VIA ROMA 11;VENEZIA;VENETO;www.icnievocinto.gov.it;12.3689784;45.580868
37069;VRIC86800N;VREE86802R;IC VILLAFRANCA CAVALCHINI MORO;VILLAFRANCA ALIGHIERI D.;VILLAFRANCA DI VERONA;SCUOLA PRIMARIA;VRIC86800N@istruzione.it;VIA L. PRINA 81;VERONA;VENETO;www.icsvillafranca.gov.it;10.8426121;45.357088
37011;VRIC83400E;VRMM83401G;IC BARDOLINO;BARDOLINO-FALCONE E BORSELLINO;BARDOLINO;SCUOLA PRIMO GRADO;VRIC83400E@istruzione.it;VIA        D.ALIGHIERI;VERONA;VENETO;www.ic-falconeborsellino.it;10.7192633;45.5503934
37030;VRIC81700R;VRAA81703Q;IC SAN GIOVANNI ILARIONE;SAN LEONARDO;VESTENANOVA;SCUOLA INFANZIA;VRIC81700R@istruzione.it;VIA CHIESA 23;VERONA;VENETO;www.icsgi.com;11.2267357;45.5741704
36030;VIIC82500B;VIAA825018;IC LUGO DI VICENZA NODARI;IC LUGO DI VICENZA - CAPOLUOGO;LUGO DI VICENZA;SCUOLA INFANZIA;VIIC82500B@istruzione.it;VIA SIOGGIO;VICENZA;VENETO;www.icslugodivicenza.gov.it/;11.5232893;45.7499419
30131;VEVC010004;VEVC010004;M. FOSCARINI;M. FOSCARINI;VENEZIA;CONVITTO NAZIONALE;VEVC010004@istruzione.it;CANNAREGIO 4941;VENEZIA;VENETO;www.liceofoscarini.it;12.326393;45.4467816
37134;VRIC851008;VRMM85102A;IC VR 10 BORGO ROMA EST;POLICLINICO  BORGO ROMA -I.C.10;VERONA;SCUOLA PRIMO GRADO;VRIC851008@istruzione.it;VIA DELLE MENEGONE;VERONA;VENETO;Non Disponibile;10.9949954;45.4058026
37129;VRIC88900P;VREE88901R;IC VR 18 VERONETTA- PORTO;MASSALONGO A.;VERONA;SCUOLA PRIMARIA;VRIC88900P@istruzione.it;VIA DELL.ARTIGLIERE 14;VERONA;VENETO;www.comprensivovr18.it;11.0041303;45.4377079
36030;VIIC81100D;VIEE81104P;IC VILLAVERLA  GOLDONI;VILLAVERLA - CAP.;VILLAVERLA;SCUOLA PRIMARIA;VIIC81100D@istruzione.it;VIA CARD. E. DALLA COSTA 2;VICENZA;VENETO;www.icvillaverla.it;11.4937077;45.651145
30036;VEIC82100R;VEIC82100R;F. E  P.  CORDENONS;F. E  P.  CORDENONS;SANTA MARIA DI SALA;ISTITUTO COMPRENSIVO;VEIC82100R@istruzione.it;VIALE RIMEMBRANZE N. 4;VENEZIA;VENETO;Non Disponibile;12.0349063;45.5066221
35040;PDIC854002;PDEE85407A;SOLESINO-STANGHELLA;GUGLIELMO MARCONI;VESCOVANA;SCUOLA PRIMARIA;PDIC854002@istruzione.it;VIA BASSA 6;PADOVA;VENETO;www.icsolesino-stanghella.gov.it;11.7127833;45.1334429
31045;TVIS01100A;TVTF011518;IS A.SCARPA;I.T.I.S.SERALE-SCARPA;MOTTA DI LIVENZA;ISTITUTO TECNICO INDUSTRIALE;TVIS01100A@istruzione.it;VIA I MAGGIO N.3;TREVISO;VENETO;www.isissmotta.it;12.6077326;45.7722926
31033;TVIC816009;TVEE81602C;IC CASTELFRANCO V.TO 2;ANGELO COLOMBO;CASTELFRANCO VENETO;SCUOLA PRIMARIA;TVIC816009@istruzione.it;VIA PUCCINI 17;TREVISO;VENETO;www.ic2castelfranco.gov.it;11.9311117;45.6701956
32043;BLIC81800L;BLIC81800L;IC CORTINA D'AMPEZZO;IC CORTINA D'AMPEZZO;CORTINA D'AMPEZZO;ISTITUTO COMPRENSIVO;BLIC81800L@istruzione.it;VIA DEL PARCO 13;BELLUNO;VENETO;Non Disponibile;12.1358153;46.5351159
37050;VRIC84200D;VRMM84202G;IC MINERBE;ROVERCHIARA;ROVERCHIARA;SCUOLA PRIMO GRADO;VRIC84200D@istruzione.it;PIAZZETTA UNITA' D'ITALIA 2;VERONA;VENETO;www.icminerbe.gov.it;11.0407953;45.5739975
37023;VRIC815005;VREE81506C;IC GREZZANA;GREZZANA;GREZZANA;SCUOLA PRIMARIA;VRIC815005@istruzione.it;VIALE DELLA RIMEMBRANZA 24;VERONA;VENETO;www.grezzanascuole.gov.it;11.01524;45.51883
45100;ROIC81900G;ROMM81901L;ROVIGO 4;A.RICCOBONI;ROVIGO;SCUOLA PRIMO GRADO;ROIC81900G@istruzione.it;VIA MOZART 8;ROVIGO;VENETO;www.comprensivorovigo4.it;11.7745988;45.0716754
30141;VEIC81400N;VEEE81403T;I.C. U. FOSCOLO MURANO-BURANO;ALVISE VIVARINI;VENEZIA;SCUOLA PRIMARIA;VEIC81400N@istruzione.it;VIA DELLA PASSAORA 6;VENEZIA;VENETO;http://www.icmuranoburano.gov.it;12.4084364;45.4580888
30032;VEIC86400P;VEAA86401G;I.C. ALVISE PISANI;BOSCO INCANTATO;FIESSO D'ARTICO;SCUOLA INFANZIA;VEIC86400P@istruzione.it;P.ZZA PERTINI;VENEZIA;VENETO;www.ICALVISEPISANI.IT;12.0314972;45.4184821
36061;VIPC04000X;VIPC04000X;LC    G.B. BROCCHI;LC    G.B. BROCCHI;BASSANO DEL GRAPPA;LICEO CLASSICO;VIPC04000X@istruzione.it;VIALE 11 FEBBRAIO 65;VICENZA;VENETO;www.liceobrocchi.vi.it;11.7402227;45.7608885
36031;VIIC86000P;VIAA86004P;IC DUEVILLE RONCALLI;CAV. DI VITTORIO V. -  DUEVILLE;DUEVILLE;SCUOLA INFANZIA;VIIC86000P@istruzione.it;VIA CAV. DI VITTORIO V.;VICENZA;VENETO;ICRONCALLI.IT;11.5552165;45.6386193
36076;VIIC848004;VIAA848022;IC RECOARO TERME FLORIANI;IC RECOARO - ROVEGLIANA;RECOARO TERME;SCUOLA INFANZIA;VIIC848004@istruzione.it;VIA PIAZZA 25;VICENZA;VENETO;viic848004@istruzione.it;11.25435;45.7058
30125;VEIC841002;VEIC841002;FRANCESCO MOROSINI;FRANCESCO MOROSINI;VENEZIA;ISTITUTO COMPRENSIVO;VEIC841002@istruzione.it;SESTIERE DI SANTA  CROCE  N.   1882;VENEZIA;VENETO;Non Disponibile;12.3291;45.44011
35012;PDIS00800C;PDIS00800C;IIS S.PERTINI-CAMPOSAMPIERO;IIS S.PERTINI-CAMPOSAMPIERO;CAMPOSAMPIERO;ISTITUTO SUPERIORE;PDIS00800C@istruzione.it;VIA PUCCINI27;PADOVA;VENETO;Non Disponibile;11.9339317;45.5637361
30141;VEIC81400N;VEMM81401P;I.C. U. FOSCOLO MURANO-BURANO;B. E A. VIVARINI - AGGR. I.C.;VENEZIA;SCUOLA PRIMO GRADO;VEIC81400N@istruzione.it;FONDAMENTA RADI         9/A;VENEZIA;VENETO;http://www.icmuranoburano.gov.it;12.3588951;45.4577824
35020;PDIC895008;PDEE89502B;ALBIGNASEGO;RAGGIO DI SOLE;ALBIGNASEGO;SCUOLA PRIMARIA;PDIC895008@istruzione.it;VIA S.BELLINO 157;PADOVA;VENETO;www.icalbignasego.gov.it;11.85009;45.36799
35030;PDIC85700D;PDAA85701A;ISTITUTO COMPRENSIVO LOZZO A.;GIALLOVERDEBLU;CINTO EUGANEO;SCUOLA INFANZIA;PDIC85700D@istruzione.it;VIA ROMA 38;PADOVA;VENETO;http://www.iclozzoatestino.gov.it;11.6870197;45.4247978
32030;BLIC82000L;BLEE82002Q;IC FONZASO;FRAZ. ARTEN;FONZASO;SCUOLA PRIMARIA;BLIC82000L@istruzione.it;VIA G. TOIGO 1;BELLUNO;VENETO;www.istitutocomprensivofonzaso.it;11.8299603;46.0046205
31031;TVIC82100R;TVMM82101T;IC CAERANO DI SAN MARCO;SMS CAERANO DI SAN MARCO (I.C.);CAERANO DI SAN MARCO;SCUOLA PRIMO GRADO;TVIC82100R@istruzione.it;VIA        DELLA PACE          1;TREVISO;VENETO;www.iccaerano.it;12.002792;45.789739
31044;TVIC87900C;TVEE87902G;IC MONTEBELLUNA 2;U. FOSCOLO;MONTEBELLUNA;SCUOLA PRIMARIA;TVIC87900C@istruzione.it;VIA ALTE3/A;TREVISO;VENETO;www.icmontebelluna2.gov.it;12.04814;45.75189
31038;TVIC868002;TVEE868069;I.C. C. CASTELLER;TREFORNI;PAESE;SCUOLA PRIMARIA;TVIC868002@istruzione.it;VIA TREFORNI;TREVISO;VENETO;WWW.ICPAESE.GOV.IT;12.1769435;45.6742676
30022;VEIC80500V;VEAA80503T;GUGLIELMO MARCONI;SCUOLA D'INF. G.RODARI;CEGGIA;SCUOLA INFANZIA;VEIC80500V@istruzione.it;VIA FOLEGOT 290;VENEZIA;VENETO;www.marconiceggia.gov.it;12.6457803;45.691218
36061;VIMM141007;VICT70300B;CPIA DI VICENZA;CTP DI BASSANO DEL GRAPPA (EX IC 2);BASSANO DEL GRAPPA;CENTRO TERRITORIALE;VIMM141007@istruzione.it;VIA MONSIGNOR RODOLFI 100;VICENZA;VENETO;Non Disponibile;11.7238025;45.7483953
36061;VIIC88100Q;VIEE88101T;IC 3  BASSANO DEL GRAPPA;BASSANO - ANGARANO;BASSANO DEL GRAPPA;SCUOLA PRIMARIA;VIIC88100Q@istruzione.it;VIA SABBIONARA2;VICENZA;VENETO;www.ic3bassano.gov.it;11.7249132;45.7672839
35040;PDIC87800E;PDMM87802L;LUIGI CHINAGLIA;URBANA SEZ.DI MONTAGNANA;URBANA;SCUOLA PRIMO GRADO;PDIC87800E@istruzione.it;VIA ROMA 38;PADOVA;VENETO;www.comprensivochinaglia.it;11.7117127;45.1866111
35010;PDIC84200Q;PDIC84200Q;DI CURTAROLO E CAMPO S.MARTINO;DI CURTAROLO E CAMPO S.MARTINO;CURTAROLO;ISTITUTO COMPRENSIVO;PDIC84200Q@istruzione.it;VIA KENNEDY 11;PADOVA;VENETO;Non Disponibile;11.885988;45.515284
31029;TVPC120008;TVPC120008;LICEO CLASSICO  FLAMINIO;LICEO CLASSICO  FLAMINIO;VITTORIO VENETO;LICEO CLASSICO;TVPC120008@istruzione.it;VIA DANTE 6;TREVISO;VENETO;www.liceoflaminio.gov.it;12.2988452;45.9892648
31020;TVMM140004;TVCT710007;CPIA ALBERTO MANZI DI TREVISO;CTP DI SAN POLO DI PIAVE;SAN POLO DI PIAVE;CENTRO TERRITORIALE;TVMM140004@istruzione.it;VIA ROMA 68;TREVISO;VENETO;Non Disponibile;12.2556596;45.719926
31053;TVIC84200T;TVMM84201V;IC PIEVE DI SOLIGO;SMS TONIOLO PIEVE DI SOLIGO(IC);PIEVE DI SOLIGO;SCUOLA PRIMO GRADO;TVIC84200T@istruzione.it;VIA G. BATTISTELLA 3;TREVISO;VENETO;www.icpieve.gov.it;12.168607;45.904561
37132;VRIC88500B;VRMM88501C;IC MAD. DI CAMPAGNA - S.MICHELE;GIOVANNI XXIII  -  M.L.KING;VERONA;SCUOLA PRIMO GRADO;VRIC88500B@istruzione.it;VIA MONTE BIANCO 14;VERONA;VENETO;http://www.icestverona.gov.it;11.0538208;45.4280076
37053;VRIS00100B;VRTD00101N;LEONARDO  DA VINCI;I.T.C. CEREA;CEREA;ISTITUTO TECNICO COMMERCIALE;VRIS00100B@istruzione.it;VIA        GANDHI;VERONA;VENETO;www.davincicerea.gov.it;11.2116239;45.1892323
45030;ROIC807009;ROMM80701A;ISTITUTO COMPRENSIVO VILLADOSE;D.ALIGHIERI -S.MARTINO DI V.ZZE;SAN MARTINO DI VENEZZE;SCUOLA PRIMO GRADO;ROIC807009@istruzione.it;VIA A.DE GASPERI 15;ROVIGO;VENETO;www.icvilladose.gov.it;11.4274179;44.9840204
35030;PDIC85200A;PDMM85202C;DI MESTRINO;VEGGIANO SEZ.DI MESTRINO;VEGGIANO;SCUOLA PRIMO GRADO;PDIC85200A@istruzione.it;VIA ROMA 8/10;PADOVA;VENETO;icsmestrino.gov.it;11.787644;45.429681
31046;TVIS00600V;TVRC00601T;IS A.V.OBICI;IST. PROFESS SERVIZI COMM.LI-SOCIO SANIT;ODERZO;IST PROF PER I SERVIZI COMMERCIALI E TURISTICI;TVIS00600V@istruzione.it;VIA STADIO 2/A;TREVISO;VENETO;www.isisobici.it;12.4872539;45.7875417
37127;VRIC87600L;VREE87602Q;IC  VR 04 PONTE CRENCANO;PISANO A.;VERONA;SCUOLA PRIMARIA;VRIC87600L@istruzione.it;VIA LUNGOLORI 1;VERONA;VENETO;www.pontecrencanoquinzanoavesa.it;10.9899034;45.4699333
37036;VRIC84000T;VREE84001X;IC S.MARTINO B.A.;S.MARTINO B.A.E.SALGARI;SAN MARTINO BUON ALBERGO;SCUOLA PRIMARIA;VRIC84000T@istruzione.it;VIA BENTEGODI 2;VERONA;VENETO;http://nuke.icsanmartinoscuole.it/;10.9908697;45.4359545
30034;VEIC868002;VEMM868013;I.C.  LUIGI NONO MIRA  I;GIACOMO  LEOPARDI;MIRA;SCUOLA PRIMO GRADO;VEIC868002@istruzione.it;VIA ENRICO TOTI N. 33;VENEZIA;VENETO;www.istitutocomprensivomira1.gov.it;12.1268844;45.4380075
32037;BLIC83200V;BLEE832044;IC  SEDICO;SOSPIROLO;SOSPIROLO;SCUOLA PRIMARIA;BLIC83200V@istruzione.it;VIA CAPOLUOGO 35;BELLUNO;VENETO;www.comprensivosedico-sospirolo.gov.it;12.0757875;46.1404933
32030;BLIC83300P;BLAA83303N;IC  FELTRE;MUGNAI;FELTRE;SCUOLA INFANZIA;BLIC83300P@istruzione.it;VIA SCUOLE 53;BELLUNO;VENETO;www.comprensivofeltre.it;11.9467118;46.0737975
35030;PDIC85100E;PDIC85100E;IST. COMPR. RUBANO - BUONARROTI;IST. COMPR. RUBANO - BUONARROTI;RUBANO;ISTITUTO COMPRENSIVO;PDIC85100E@istruzione.it;VIALE PO 20;PADOVA;VENETO;Non Disponibile;11.8177586;45.4215286
31040;TVIC83700A;TVAA837028;IC GIAVERA DEL MONTELLO;ARCOBALENO;GIAVERA DEL MONTELLO;SCUOLA INFANZIA;TVIC83700A@istruzione.it;VIA BOLE' 20;TREVISO;VENETO;www.icgiavera.it;12.1637669;45.7938005
45011;ROMM052008;ROCT702003;CPIA DI ROVIGO;C.T.P. ADRIA;ADRIA;CENTRO TERRITORIALE;ROMM052008@istruzione.it;VIA UMBERTO I;ROVIGO;VENETO;Non Disponibile;12.0616836;45.0515111
31015;TVIC867006;TVEE86704B;IC CONEGLIANO 2 GB CIMA;J.F. KENNEDY;CONEGLIANO;SCUOLA PRIMARIA;TVIC867006@istruzione.it;VIA KENNEDY 10;TREVISO;VENETO;www.icconegliano2cima.gov.it;12.1860954;45.881841
32034;BLIC814009;BLEE81401B;IC  PEDAVENA F. BERTON;SC. ELEM. A.RECH PEDAVENA;PEDAVENA;SCUOLA PRIMARIA;BLIC814009@istruzione.it;VIA U. FOSCOLO  1;BELLUNO;VENETO;www.comprensivopedavena.it;11.877697;46.03839
37131;VRRH02000X;VRRH020022;ANGELO BERTI;CASA CIRCONDARIALE DI VERONA;VERONA;IST PROF PER I SERVIZI ALBERGHIERI E RISTORAZIONE;VRRH02000X@istruzione.it;VIA S.MICHELE 15;VERONA;VENETO;www.bertivr.it;11.0443579;45.4426369
35013;PDTD04000D;PDTD04000D;ITCG GIRARDI -CITTADELLA;ITCG GIRARDI -CITTADELLA;CITTADELLA;IST TEC COMMERCIALE E PER GEOMETRI;PDTD04000D@istruzione.it;VIA KENNEDY29;PADOVA;VENETO;www.girardicittadella.gov.it;11.6650998;45.2346049
36025;VIIC83300A;VIMM83301B;IC NOVENTA VIC. A.FOGAZZARO;SEC. PRIMO GRADO A. FOGAZZARO;NOVENTA VICENTINA;SCUOLA PRIMO GRADO;VIIC83300A@istruzione.it;VIA  G. MARCONI N. 13;VICENZA;VENETO;www.icsfogazzaronoventa.gov.it;11.4353191;45.4936043
35143;PDIS00600R;PDTA006501;IIS DUCA DEGLI ABRUZZI-PADOVA;CORSO SERALE ITA;PADOVA;ISTITUTO TECNICO AGRARIO;PDIS00600R@istruzione.it;VIA M.MERLIN 1;PADOVA;VENETO;www.ducabruzzi.gov.it;11.83435;45.39391
31045;TVIC88100C;TVEE88102G;IC MOTTA DI LIVENZA;A. MANZONI;MOTTA DI LIVENZA;SCUOLA PRIMARIA;TVIC88100C@istruzione.it;VIA CORRADO GINI 20;TREVISO;VENETO;icmottadilivenza.gov.it;12.61384;45.78829
31048;TVIC832007;TVAA832025;IC SAN BIAGIO DI CALLALTA;SCUOLA INFANZIA;SAN BIAGIO DI CALLALTA;SCUOLA INFANZIA;TVIC832007@istruzione.it;VIA MATTEOTTI 38;TREVISO;VENETO;icsanbiagio.gov.it;12.34718;45.66846
36078;VIIC82800V;VIEE828044;IC 1 VALDAGNO;VALDAGNO  - VIA BORNE;VALDAGNO;SCUOLA PRIMARIA;VIIC82800V@istruzione.it;VIA BOLIVIA 1;VICENZA;VENETO;www.icvaldagno1.it;11.2967785;45.64124
36032;VIIC88700P;VIIC88700P;IC GALLIO;IC GALLIO;GALLIO;ISTITUTO COMPRENSIVO;VIIC88700P@istruzione.it;VIA ROMA 1;VICENZA;VENETO;Non Disponibile;11.5491918;45.8924437
31021;TVIC87800L;TVEE87801P;IC MOGLIANO 1;AMERIGO VESPUCCI;MOGLIANO VENETO;SCUOLA PRIMARIA;TVIC87800L@istruzione.it;VIA CHIESA 8;TREVISO;VENETO;www.istitutocomprensivo1moglianoveneto.it;12.26892;45.5794868
36100;VIIC86200A;VIMM86201B;IC VICENZA 9   VIA BELLINI;SMS G.AMBROSOLI;VICENZA;SCUOLA PRIMO GRADO;VIIC86200A@istruzione.it;VIA BELLINI 106;VICENZA;VENETO;www.icvicenza9.gov.it;11.514275;45.5415494
37141;VRIC88800V;VRAA88801Q;IC VR 17 MONTORIO;MONTORIO;VERONA;SCUOLA INFANZIA;VRIC88800V@istruzione.it;VIA DEI CEDRI;VERONA;VENETO;vric88800v@istruzione.it;11.062268;45.4590504
45024;ROIC810005;ROIC810005;FIESSO UMBERTIANO;FIESSO UMBERTIANO;FIESSO UMBERTIANO;ISTITUTO COMPRENSIVO;ROIC810005@istruzione.it;VIA VERDI194;ROVIGO;VENETO;Non Disponibile;11.6049438;44.9611388
45010;ROIC807009;ROMM80702B;ISTITUTO COMPRENSIVO VILLADOSE;C.GOLDONI - CEREGNANO;CEREGNANO;SCUOLA PRIMO GRADO;ROIC807009@istruzione.it;VIA ALDO MORO 1;ROVIGO;VENETO;www.icvilladose.gov.it;12.241559;45.08035
30122;VEIS00800E;VEIS00800E;VENDRAMIN CORNER;VENDRAMIN CORNER;VENEZIA;ISTITUTO SUPERIORE;VEIS00800E@istruzione.it;CASTELLO 787/A;VENEZIA;VENETO;Non Disponibile;12.3587;45.43081
36020;VIIC814001;VIAA81401T;IC A. PALLADIO - POIANA;SAN GAETANO THIENE- AGUGLIARO;AGUGLIARO;SCUOLA INFANZIA;VIIC814001@istruzione.it;VIA ROMA 11;VICENZA;VENETO;icspojana.gov.it;11.5890595;45.3622604
36060;VIIC88900A;VIIC88900A;IC - ROMANO D'EZZELINO;IC - ROMANO D'EZZELINO;ROMANO D'EZZELINO;ISTITUTO COMPRENSIVO;VIIC88900A@istruzione.it;VIA VELO67;VICENZA;VENETO;Non Disponibile;11.7651517;45.7809744
30038;VEIC86000B;VEEE86004L;I.C. SPINEA 1;A. VIVALDI- TEMPO PIENO;SPINEA;SCUOLA PRIMARIA;VEIC86000B@istruzione.it;VIA FORNASE 55/D;VENEZIA;VENETO;www.istitutocomprensivospinea1.gov.it;12.1615615;45.4767162
30020;VEIC825004;VEIC825004;IPPOLITO NIEVO;IPPOLITO NIEVO;CINTO CAOMAGGIORE;ISTITUTO COMPRENSIVO;VEIC825004@istruzione.it;VIA TORINO N. 4;VENEZIA;VENETO;Non Disponibile;12.2786823;45.5583704
32020;BLIC82700B;BLEE82705N;IC ALLEGHE;DON TALAMINI- SELVA DI CADORE;SELVA DI CADORE;SCUOLA PRIMARIA;BLIC82700B@istruzione.it;VIA DEI DENEVER 21 - S.FOSCA;BELLUNO;VENETO;www.iciauri.it;12.063607;46.443608
35010;PDIC83900X;PDEE839012;LOREGGIA-VILLA DEL CONTE;LOREGGIA - GANZINA;LOREGGIA;SCUOLA PRIMARIA;PDIC83900X@istruzione.it;VIA LOREGGIOLA N. 2;PADOVA;VENETO;WWW.ICLOREGGIAVILLADELCONTE.IT;11.9346919;45.5997934
36040;VIIC85200Q;VIAA85204Q;IC ARSIERO  P.MAROCCO;IC ARSIERO -VALDASTICO;VALDASTICO;SCUOLA INFANZIA;VIIC85200Q@istruzione.it;VIA REGINA MARGHERITA   34;VICENZA;VENETO;http://www.icarsiero.gov.it;11.3624428;45.8862377
36016;VIIC88300B;VIIC88300B;IC THIENE;IC THIENE;THIENE;ISTITUTO COMPRENSIVO;VIIC88300B@istruzione.it;PIAZZA  SCALCERLE 8;VICENZA;VENETO;Non Disponibile;11.4810458;45.7036012
35010;PDIC86400L;PDMM86401N;DI VILLAFRANCA PADOVANA;ITALO CALVINO;VILLAFRANCA PADOVANA;SCUOLA PRIMO GRADO;PDIC86400L@istruzione.it;VIA BALLA N. 50;PADOVA;VENETO;www.icvillafranca.it;11.818752;45.45867
32032;BLIC83300P;BLAA83304P;IC  FELTRE;PASQUER;FELTRE;SCUOLA INFANZIA;BLIC83300P@istruzione.it;VIA CISMON 3;BELLUNO;VENETO;www.comprensivofeltre.it;11.9260541;46.0264935
31010;TVIC825004;TVMM825026;IC CORDIGNANO I. NIEVO;SMS ORSAGO (IC CORDIGNANO);ORSAGO;SCUOLA PRIMO GRADO;TVIC825004@istruzione.it;VIA DON MILANI 2;TREVISO;VENETO;www.iccordignano.it;12.2325126;45.6576361
31024;TVIC86000B;TVEE86002E;IC SAN POLO  L.LUZZATTI;DANTE ALIGHIERI;ORMELLE;SCUOLA PRIMARIA;TVIC86000B@istruzione.it;VIA ROMANA 4;TREVISO;VENETO;www.icsanpolodipiave.gov.it;12.42017;45.77765
35030;PDIC858009;PDEE85802C;DI CERVARESE SANTA CROCE;CERVARESE-FOSSONA PAPA LUCIANI;CERVARESE SANTA CROCE;SCUOLA PRIMARIA;PDIC858009@istruzione.it;VIA S. ANTONIO 96;PADOVA;VENETO;www.comprensivocervarese.it;11.7096701;45.4471436
37068;VRIC89600T;VREE896032;IC VIGASIO;VIGASIO;VIGASIO;SCUOLA PRIMARIA;VRIC89600T@istruzione.it;VIA E. BASSINI 6;VERONA;VENETO;www.istitutocomprensivovigasio.gov.it;10.9381523;45.3154729
37018;VRIC84100N;VRMM84101P;IC MALCESINE;MALCESINE - DON A. MORETTO;MALCESINE;SCUOLA PRIMO GRADO;VRIC84100N@istruzione.it;VIA        CAMPOGRANDE         18;VERONA;VENETO;www.icsmalcesine.gov.it;10.8115721;45.7646802
37045;VRIC89700N;VRIC89700N;IC 02 LEGNAGO;IC 02 LEGNAGO;LEGNAGO;ISTITUTO COMPRENSIVO;VRIC89700N@istruzione.it;VIA GIORDANO BRUNO 3;VERONA;VENETO;Non Disponibile;11.3173911;45.1947662
37060;VRIC814009;VRMM81401A;IC SONA;SONA - VIRGILIO;SONA;SCUOLA PRIMO GRADO;VRIC814009@istruzione.it;VIA        PERGOLESI           13;VERONA;VENETO;www.icsona.gov.it;11.0245102;45.448667
32020;BLIC828007;BLAA828025;IC AGORDO A. PERTILE;RIVAMONTE;RIVAMONTE;SCUOLA INFANZIA;BLIC828007@istruzione.it;VIA ROMA 1;BELLUNO;VENETO;www.istitutocomprensivoagordo.it;12.1879376;46.1011488
30174;VEIC82700Q;VEEE827041;GIULIO CESARE PAROLARI;G.C.PAROLARI-ZELARINO;VENEZIA;SCUOLA PRIMARIA;VEIC82700Q@istruzione.it;VIA ZANDOMENEGHI 1;VENEZIA;VENETO;www.icparolari.gov.it;12.21108;45.51173
30035;VEIC85700G;VEEE85701N;I.C. MIRANO 2;FRANCESCO PETRARCA;MIRANO;SCUOLA PRIMARIA;VEIC85700G@istruzione.it;VIA C.BATTISTI 107;VENEZIA;VENETO;www.icmiranodue.gov.it;12.10223;45.49622
36070;VIIC84600C;VIMM84602E;IC ALTISSIMO UNGARETTI;SMS S. PIETRO MUSSOLINO;SAN PIETRO MUSSOLINO;SCUOLA PRIMO GRADO;VIIC84600C@istruzione.it;VIA G. COSARO;VICENZA;VENETO;www.comprensivoungaretti.gov.it;11.2574778;45.586297
36100;VIMM141007;VICT70600V;CPIA DI VICENZA;CTP DI VICENZA (EX IC 4 - BAROLINI);VICENZA;CENTRO TERRITORIALE;VIMM141007@istruzione.it;VIA PALEMONE20;VICENZA;VENETO;Non Disponibile;11.5719034;45.54736
31040;TVIC88000L;TVAA88002E;IC GORGO AL MONTICANO;SCUOLA INFANZIA  SANTA FAVERO;MANSUE';SCUOLA INFANZIA;TVIC88000L@istruzione.it;VIA CORNARE' N.8;TREVISO;VENETO;www.icgorgo.gov.it;12.5022318;45.8403985
30123;VEMM161005;VEEE700011;CPIA DI VENEZIA;CASA DI PENA;VENEZIA;SCUOLA PRIMARIA;VEMM161005@istruzione.it;GIUDECCA 7/2;VENEZIA;VENETO;Non Disponibile;12.3334426;45.4316365
30024;VEIC82600X;VEMM826011;ENRICO TOTI;ENRICO TOTI;MUSILE DI PIAVE;SCUOLA PRIMO GRADO;VEIC82600X@istruzione.it;VIA MARCONI 43;VENEZIA;VENETO;www.ictoti.gov.it;12.55672;45.62205
31053;TVIC84200T;TVEE842021;IC PIEVE DI SOLIGO;DON L. MILANI;PIEVE DI SOLIGO;SCUOLA PRIMARIA;TVIC84200T@istruzione.it;VIA KENNEDY 17/A;TREVISO;VENETO;www.icpieve.gov.it;12.18478;45.8818
37069;VRIC86800N;VREE86801Q;IC VILLAFRANCA CAVALCHINI MORO;VILLAFRANCA  G.BELLOTTI;VILLAFRANCA DI VERONA;SCUOLA PRIMARIA;VRIC86800N@istruzione.it;CORSO VITTORIO EMANUELE 113;VERONA;VENETO;www.icsvillafranca.gov.it;10.8456477;45.3529584
35030;PDIC85100E;PDMM85101G;IST. COMPR. RUBANO - BUONARROTI;RUBANO M.BUONARROTI;RUBANO;SCUOLA PRIMO GRADO;PDIC85100E@istruzione.it;VIALE PO 20;PADOVA;VENETO;www.icrubano.it;11.8177586;45.4215286
31100;TVIS01600D;TVRC01601C;IS F.BESTA;I.P.S.C.T. FABIO BESTA TREVISO;TREVISO;IST PROF PER I SERVIZI COMMERCIALI E TURISTICI;TVIS01600D@istruzione.it;BORGO      CAVOUR 33;TREVISO;VENETO;www.bestatreviso.gov.it;12.2384919;45.6672468
37010;VRIC83300P;VRMM83302R;IC CAVAION;PASTRENGO;PASTRENGO;SCUOLA PRIMO GRADO;VRIC83300P@istruzione.it;VIA PRIMO MAGGIO 1;VERONA;VENETO;www.ics-cavaion.it;10.7478133;45.587069
37030;VRIC81700R;VRAA81701N;IC SAN GIOVANNI ILARIONE;BOLCA;VESTENANOVA;SCUOLA INFANZIA;VRIC81700R@istruzione.it;VIA VILLA BOLCA 4;VERONA;VENETO;www.icsgi.com;11.205472;45.4383842
37045;VRIC89800D;VRAA89802B;IC 01 LEGNAGO;INFANZIA LEGNAGO COTTA;LEGNAGO;SCUOLA INFANZIA;VRIC89800D@istruzione.it;VIA LEOPARDI 5;VERONA;VENETO;ww.legnago1.gov.it;11.3127632;45.1904277
36013;VIIC827003;VIAA82701X;IC PIOVENE ROCCHETTE- FOGAZZARO;IC PIOVENE ROCCHETTE - CAP.;PIOVENE-ROCCHETTE;SCUOLA INFANZIA;VIIC827003@istruzione.it;VIA SANT'EUROSIA;VICENZA;VENETO;www.ics-piovene-rocchette.vi.it;11.4345597;45.7590825
30035;VEIS00300B;VEIS00300B;ETTORE MAJORANA;ETTORE MAJORANA;MIRANO;ISTITUTO SUPERIORE;VEIS00300B@istruzione.it;VIA MATTEOTTI 44;VENEZIA;VENETO;Non Disponibile;12.0979965;45.4961403
30122;VEVC02000P;VEVC02000P;CONV.ANNESSO IPSAM CINI;CONV.ANNESSO IPSAM CINI;VENEZIA;CONVITTO ANNESSO;VEVC02000P@istruzione.it;CASTELLO 785;VENEZIA;VENETO;Non Disponibile;12.3385167;45.4373185
37045;VRIS01400D;VRTL01401N;G.SILVA-M.RICCI;PER GEOMETRI;LEGNAGO;ISTITUTO TECNICO PER GEOMETRI;VRIS01400D@istruzione.it;VIA NINO BIXIO 53;VERONA;VENETO;itisilva.it;11.317061;45.20101
37141;VRIC88800V;VREE888022;IC VR 17 MONTORIO;MIZZOLE;VERONA;SCUOLA PRIMARIA;VRIC88800V@istruzione.it;VIA DANIELI 19;VERONA;VENETO;vric88800v@istruzione.it;11.0581135;45.4775266
36030;VIIC81100D;VIEE81105Q;IC VILLAVERLA  GOLDONI;VILLAVERLA - NOVOLEDO;VILLAVERLA;SCUOLA PRIMARIA;VIIC81100D@istruzione.it;VIA A. PALLADIO 151;VICENZA;VENETO;www.icvillaverla.it;11.4670774;45.7682387
35133;PDIC882006;PDAA882013;V IC DI PADOVA DONATELLO;PIERINA BORANGA;PADOVA;SCUOLA INFANZIA;PDIC882006@istruzione.it;VIA L. BENEDETTI;PADOVA;VENETO;www.quintoicpadova.it;11.8959049;45.4330257
35040;PDIC854002;PDEE854069;SOLESINO-STANGHELLA;GUGLIELMO MARCONI;BOARA PISANI;SCUOLA PRIMARIA;PDIC854002@istruzione.it;VIA ENRICO FERMI 16;PADOVA;VENETO;www.icsolesino-stanghella.gov.it;11.6490583;45.1300245
35010;PDIC84800P;PDIC84800P;ISTITUTO COMPRENSIVO  LIMENA;ISTITUTO COMPRENSIVO  LIMENA;LIMENA;ISTITUTO COMPRENSIVO;PDIC84800P@istruzione.it;VIA B.ARNALDO33;PADOVA;VENETO;Non Disponibile;11.8430077;45.4727281
36022;VIIC85800P;VIAA85802L;IC CASSOLA -  MARCONI;CASSOLA - CALIBRI;CASSOLA;SCUOLA INFANZIA;VIIC85800P@istruzione.it;VIA MANTEGNA1;VICENZA;VENETO;www.comprensivocassola.gov.it;11.7579683;45.7649711
31045;TVIS01100A;TVPS01101R;IS A.SCARPA;L.S.SCARPA-MOTTA(S.C. I.S.MOTTA);MOTTA DI LIVENZA;LICEO SCIENTIFICO;TVIS01100A@istruzione.it;VIA I MAGGIO 3;TREVISO;VENETO;www.isissmotta.it;12.6077326;45.7722926
31033;TVIC816009;TVEE81603D;IC CASTELFRANCO V.TO 2;VINCENZO RIZZO;CASTELFRANCO VENETO;SCUOLA PRIMARIA;TVIC816009@istruzione.it;VIA MONTEBELLUNA DI SALVAROSA N. 14;TREVISO;VENETO;www.ic2castelfranco.gov.it;11.9535055;45.6821073
31010;TVIC862003;TVEE862059;IC SAN ZENONE DEGLI EZZELINI;E.DE AMICIS - ONE' DI FONTE;FONTE;SCUOLA PRIMARIA;TVIC862003@istruzione.it;VIA MONTEGRAPPA 20;TREVISO;VENETO;http://www.comprensivosanzenone.gov.it;12.1544046;45.9063571
32032;BLIS00400V;BLRI00401E;POLO DI FELTRE;IPSIA C. RIZZARDA;FELTRE;IST PROF INDUSTRIA E ARTIGIANATO;BLIS00400V@istruzione.it;VIA MARTIRI DELLA LIBERTA' 5;BELLUNO;VENETO;www.polofeltre.it;11.9059644;46.0189626
32020;BLIC82700B;BLMM82702D;IC ALLEGHE;PIEVE DI LIVINALLONGO;LIVINALLONGO DEL COL DI LANA;SCUOLA PRIMO GRADO;BLIC82700B@istruzione.it;VIA BRENTA 120;BELLUNO;VENETO;www.icciauri.it;11.94513;46.486695
37046;VRIC84200D;VRMM84201E;IC MINERBE;MINERBE - B. BARBARANI;MINERBE;SCUOLA PRIMO GRADO;VRIC84200D@istruzione.it;VIA        G. VERDI           114;VERONA;VENETO;www.icminerbe.gov.it;11.341448;45.23858
37020;VRIC815005;VREE81505B;IC GREZZANA;ERBEZZO C.BATTISTI;ERBEZZO;SCUOLA PRIMARIA;VRIC815005@istruzione.it;VIALE RIMEMBRANZA 24;VERONA;VENETO;www.grezzanascuole.gov.it;11.015552;45.518215
45020;ROIC81700X;ROMM817022;LENDINARA;E.FERMI - LUSIA;LUSIA;SCUOLA PRIMO GRADO;ROIC81700X@istruzione.it;VIA DANTE ALIGHIERI N.49;ROVIGO;VENETO;www.icslendinara.gov.it;11.66355;45.09893
30142;VEIC81400N;VEEE81404V;I.C. U. FOSCOLO MURANO-BURANO;ALFREDO DI COCCO- BURANO;VENEZIA;SCUOLA PRIMARIA;VEIC81400N@istruzione.it;VIA VIGNA N. 149;VENEZIA;VENETO;http://www.icmuranoburano.gov.it;12.4202321;45.4856789
30039;VEIC86400P;VEAA86402L;I.C. ALVISE PISANI;L'ALBERO DELLE FARFALLE;STRA;SCUOLA INFANZIA;VEIC86400P@istruzione.it;VIA FOSSOLOVARA 39;VENEZIA;VENETO;www.ICALVISEPISANI.IT;12.0063814;45.4167654
36015;VIPC05000E;VIPC05000E;LC   GIACOMO ZANELLA;LC   GIACOMO ZANELLA;SCHIO;LICEO CLASSICO;VIPC05000E@istruzione.it;PIAZZA     SUMMANO;VICENZA;VENETO;www.liceozanellaschio.it;11.5262687;45.5958915
36100;VIIC86100E;VIAA86101B;IC VICENZA 6 - F. MUTTONI;IC VICENZA 6 -LATTES;VICENZA;SCUOLA INFANZIA;VIIC86100E@istruzione.it;VIA FASOLO 28;VICENZA;VENETO;www.ic6muttoni.gov.it;11.56348;45.5531528
36050;VIIC856003;VIAA85601X;IC MONTEBELLO VICENTINO;GIACOMELLO -;ZERMEGHEDO;SCUOLA INFANZIA;VIIC856003@istruzione.it;VIA IV NOVEMBRE 2;VICENZA;VENETO;www.ic-montebello.gov.it;11.4435179;45.53035
35137;PDIS02700T;PDIS02700T;I.I.S. L.DA VINCI-PADOVA;I.I.S. L.DA VINCI-PADOVA;PADOVA;ISTITUTO SUPERIORE;PDIS02700T@istruzione.it;VIA SAN GIOVANNI DI VERDARA36;PADOVA;VENETO;Non Disponibile;11.86991;45.41436
35020;PDIC895008;PDEE89501A;ALBIGNASEGO;G.MARCONI;ALBIGNASEGO;SCUOLA PRIMARIA;PDIC895008@istruzione.it;VIA S.STEFANO 2;PADOVA;VENETO;www.icalbignasego.gov.it;11.8668255;45.3350761
35040;PDIC831009;PDMM83101A;ISTITUTO COMPRENSIVO  PONSO;PONSO A.G.RONCALLI;PONSO;SCUOLA PRIMO GRADO;PDIC831009@istruzione.it;VIA ROSSELLE 12;PADOVA;VENETO;www.ic-ponso.it;11.5850899;45.19299
32030;BLIC82000L;BLEE82001P;IC FONZASO;FONZASO;FONZASO;SCUOLA PRIMARIA;BLIC82000L@istruzione.it;VIA CANOSSIANE 39;BELLUNO;VENETO;www.istitutocomprensivofonzaso.it;11.80238;46.0169799
35040;PDIC87700P;PDMM87704V;DI CASALE SCODOSIA SCULDASCIA;MERLARA SEZ. DI CASALE DI SCOD.;MERLARA;SCUOLA PRIMO GRADO;PDIC87700P@istruzione.it;VIA STRADONA 88/A;PADOVA;VENETO;www.icsculdascia.it;11.4451417;45.1658498
31032;TVIC82200L;TVMM82201N;IC CASALE SUL SILE;SMS GRAMSCI CASALE S.S.(I.C.);CASALE SUL SILE;SCUOLA PRIMO GRADO;TVIC82200L@istruzione.it;VIA        VITTORIO VENETO     96;TREVISO;VENETO;www.iccasale.gov.it;12.3254883;45.5957105
31052;TVIC85700G;TVEE85701N;IC MASERADA SUL PIAVE;M. DEL MONACO;MASERADA SUL PIAVE;SCUOLA PRIMARIA;TVIC85700G@istruzione.it;VIA ENRICO FERMI 1;TREVISO;VENETO;WWW.icmaserada.gov.it;12.31089;45.73598
31100;TVIC870002;TVEE870047;IC TREVISO 1 A. MARTINI;I MAGGIO;TREVISO;SCUOLA PRIMARIA;TVIC870002@istruzione.it;VIA S.BARTOLOMEO 46/B;TREVISO;VENETO;www.ic1martini.it;12.2409142;45.6783497
37139;VRIC88400G;VRAA88401C;IC VR 14  SAN MASSIMO;LA MAGNOLIA;VERONA;SCUOLA INFANZIA;VRIC88400G@istruzione.it;VIA S. EUPREPIO 4;VERONA;VENETO;www.istitutosanmassimo.gov.it;10.9447631;45.4430427
36100;VIMM141007;VICT705003;CPIA DI VICENZA;CTP DI VICENZA (EX IC 9 VIA BELLINI);VICENZA;CENTRO TERRITORIALE;VIMM141007@istruzione.it;VIA BELLINI;VICENZA;VENETO;Non Disponibile;11.514625;45.5402054
36061;VIIC88100Q;VIEE88102V;IC 3  BASSANO DEL GRAPPA;BASSANO - CAMPESE;BASSANO DEL GRAPPA;SCUOLA PRIMARIA;VIIC88100Q@istruzione.it;VIA 4 NOVEMBRE 18;VICENZA;VENETO;www.ic3bassano.gov.it;11.71079;45.8027
35012;PDIS00800C;PDTD00801P;IIS S.PERTINI-CAMPOSAMPIERO;I.T.C. (S.A. PERTINI-CSP);CAMPOSAMPIERO;ISTITUTO TECNICO COMMERCIALE;PDIS00800C@istruzione.it;VIA PUCCINI 27;PADOVA;VENETO;www.pertini-camposampiero.it;11.9339317;45.5637361
35044;PDIC87800E;PDMM87801G;LUIGI CHINAGLIA;MONTAGNANA CHINAGLIA;MONTAGNANA;SCUOLA PRIMO GRADO;PDIC87800E@istruzione.it;VIA PAPA GIOVANNI XXIII N.15;PADOVA;VENETO;www.comprensivochinaglia.it;11.467788;45.241603
35013;PDIS018003;PDRI01801P;IIS ANTONIO MEUCCI - CITTADELLA;IPIA (S.A.MEUCCI CITTADELLA);CITTADELLA;IST PROF INDUSTRIA E ARTIGIANATO;PDIS018003@istruzione.it;VIA ALFIERI 58;PADOVA;VENETO;www.iisantonioameucci.gov.it;11.7780281;45.6441508
31053;TVIS00100Q;TVPM001017;IS MARCO CASAGRANDE;I.MAG. P.SOLIGO(S.C. I.S.CASAGRANDE PIEV;PIEVE DI SOLIGO;ISTITUTO MAGISTRALE;TVIS00100Q@istruzione.it;VIA     STADIO 7;TREVISO;VENETO;www.isisspieve.it;12.165704;45.9046949
31100;TVMM140004;TVEE706021;CPIA ALBERTO MANZI DI TREVISO;ISTITUTO PENALE PER MINORENNI;TREVISO;SCUOLA PRIMARIA;TVMM140004@istruzione.it;VIA S. BONA N. 5/A;TREVISO;VENETO;www.adultinforma.it;12.2308128;45.6825464
37139;VRIC88400G;VRMM88401L;IC VR 14  SAN MASSIMO;VR N.14 - DON MILANI;VERONA;SCUOLA PRIMO GRADO;VRIC88400G@istruzione.it;VIA POLE 3;VERONA;VENETO;www.istitutosanmassimo.gov.it;10.9458576;45.4410056
37029;VRIS01200T;VRTA01203Q;STEFANI - BENTEGODI;STEFANI-BENTEGODI S.PIETRO IN CARIANO;SAN PIETRO IN CARIANO;ISTITUTO TECNICO AGRARIO;VRIS01200T@istruzione.it;VIA O. SPERI 6;VERONA;VENETO;www.stefanibentegodi.it;10.910565;45.5164997
45014;ROIC80600D;ROMM80601E;PORTO VIRO;SAN DOMENICO SAVIO CONTARINA;PORTO VIRO;SCUOLA PRIMO GRADO;ROIC80600D@istruzione.it;VIA CAVALIERI DI VITTORIO VENETO2;ROVIGO;VENETO;www.icportoviro.it;12.2216608;45.0257173
35035;PDIC85200A;PDMM85201B;DI MESTRINO;MESTRINO L.DA VINCI;MESTRINO;SCUOLA PRIMO GRADO;PDIC85200A@istruzione.it;VIA DE GASPERI 17;PADOVA;VENETO;www.icsmestrino.gov.it;11.75835;45.45421
31015;TVIS00900A;TVRC009019;IISS MARCO FANNO;I.P.S.C.T CONEGLIANO (S.C.  I.S. FANNO);CONEGLIANO;IST  PROF  PER I SERVIZI COMMERCIALI;TVIS00900A@istruzione.it;VIA  F. FILZI 40;TREVISO;VENETO;www.iissfanno.gov.it;12.308877;45.879612
31100;TVPS01000X;TVPS01000X;LS L. DA VINCI;LS L. DA VINCI;TREVISO;LICEO SCIENTIFICO;TVPS01000X@istruzione.it;VIALE EUROPA 32;TREVISO;VENETO;www.liceodavinci.tv;12.21871;45.6807
37139;VRIC83900N;VREE83903T;VR 06 CHIEVO BASSONA B.GO N.;BASSONA - MARIANO VILIO;VERONA;SCUOLA PRIMARIA;VRIC83900N@istruzione.it;VIA BASSONA 26/A;VERONA;VENETO;www.ic6verona.gov.it;10.8653686;45.4534488
31022;TVIC81300T;TVEE813054;IC PREGANZIOL;GIOVANNI XXIII;PREGANZIOL;SCUOLA PRIMARIA;TVIC81300T@istruzione.it;VIA PALLADIO 78;TREVISO;VENETO;www.icpreganziol.gov.it;12.2399608;45.6080586
30020;VEIC80600P;VEIC80600P;ENRICO MATTEI;ENRICO MATTEI;MEOLO;ISTITUTO COMPRENSIVO;VEIC80600P@istruzione.it;VIA ROMA N. 27;VENEZIA;VENETO;Non Disponibile;12.3670007;45.5812147
32020;BLIC82700B;BLEE82702E;IC ALLEGHE;FRAZ. PIEVE DI LIVINALLONGO;LIVINALLONGO DEL COL DI LANA;SCUOLA PRIMARIA;BLIC82700B@istruzione.it;VIA PIEVE 23;BELLUNO;VENETO;www.icciauri.it;11.9536435;46.482036
37015;VRIC85000C;VREE85002G;IC S.AMBROGIO V.P;DOMEGLIARA MASSA A.;SANT'AMBROGIO DI VALPOLICELLA;SCUOLA PRIMARIA;VRIC85000C@istruzione.it;PIAZZA UNITA' D'ITALIA;VERONA;VENETO;www.icsantambrogio.it;10.9033067;45.6239421
30034;VEIC86900T;VEMM86901V;I.C. ADELE ZARA;FRANCESCO PETRARCA;MIRA;SCUOLA PRIMO GRADO;VEIC86900T@istruzione.it;VIA PISA 5;VENEZIA;VENETO;www.icmira2.gov.it;12.1586801;45.4578773
32030;BLIC83200V;BLEE832033;IC  SEDICO;FRAZ. BRIBANO;SEDICO;SCUOLA PRIMARIA;BLIC83200V@istruzione.it;VIA ROMA 16;BELLUNO;VENETO;www.istitutocomprensivosedico-sospirolo.gov.it;11.931929;45.9218064
32032;BLIC83300P;BLAA83302L;IC  FELTRE;ANZU';FELTRE;SCUOLA INFANZIA;BLIC83300P@istruzione.it;VIA ANZU' 1;BELLUNO;VENETO;www.comprensivofeltre.it;11.9362594;46.0063287
35010;PDIC84900E;PDIC84900E;I.C. VIGONZA DON L. MILANI;I.C. VIGONZA DON L. MILANI;VIGONZA;ISTITUTO COMPRENSIVO;PDIC84900E@istruzione.it;VIA ROMA 35;PADOVA;VENETO;Non Disponibile;11.9163305;45.5411926
31013;TVIC84800R;TVMM84801T;IC  CODOGNE';SMS CODOGNE' (I.C.);CODOGNE';SCUOLA PRIMO GRADO;TVIC84800R@istruzione.it;VIA   MONSIGNOR MORAS          3;TREVISO;VENETO;www.iccodogne.gov.it;12.431745;45.8666422
32031;BLIC81300D;BLEE81302L;IC QUERO VAS;E. DE AMICIS - ALANO DI PIAVE;ALANO DI PIAVE;SCUOLA PRIMARIA;BLIC81300D@istruzione.it;P.ZZA MARTIRI 3;BELLUNO;VENETO;www.icquero.it;11.90861;45.90917
37038;VRRH02000X;VRRH020011;ANGELO BERTI;ANGELO BERTI DI SOAVE;SOAVE;IST PROF PER I SERVIZI ALBERGHIERI E RISTORAZIONE;VRRH02000X@istruzione.it;VIALE DELLA VITTORIA 93;VERONA;VENETO;www.bertivr.it;11.24787;45.414998
37069;VRIS01200T;VRRA012041;STEFANI - BENTEGODI;STEFANI - BENTEGODI VILLAFRANCA DI VR;VILLAFRANCA DI VERONA;IST PROF PER L'AGRICOLTURA E L'AMBIENTE;VRIS01200T@istruzione.it;VIA OSPEDALE;VERONA;VENETO;www.stefanibentegodi.it;10.8339924;45.3451663
37029;VRIC86900D;VRIC86900D;IC S.PIETRO IN CARIANO;IC S.PIETRO IN CARIANO;SAN PIETRO IN CARIANO;ISTITUTO COMPRENSIVO;VRIC86900D@istruzione.it;VIA MARA 3;VERONA;VENETO;Non Disponibile;10.8850858;45.520921
37135;VRIC830007;VREE83002A;IC VR 13 CADIDAVID;LE RISORGIVE - FRACAZZOLE;VERONA;SCUOLA PRIMARIA;VRIC830007@istruzione.it;VIA FRACAZZOLE 1/B;VERONA;VENETO;www.istitutocomprensivo-primolevi-verona.it;10.987576;45.3787155
35134;PDIS02800N;PDTD02801X;I.I.S.G.VALLE;I.T.T. (S.A. IIS VALLE) - PD;PADOVA;ISTITUTO TECNICO COMMERCIALE;PDIS02800N@istruzione.it;VIA T. MINIO 13;PADOVA;VENETO;www.ipvalle.it;11.8808729;45.4238768
35143;PDIS00600R;PDTA00601L;IIS DUCA DEGLI ABRUZZI-PADOVA;ITA (S.A. DUCA ABRUZZI-PD);PADOVA;ISTITUTO TECNICO AGRARIO;PDIS00600R@istruzione.it;VIA        MARIO MERLIN 1;PADOVA;VENETO;www.ducabruzzi.gov.it;11.8368123;45.394579
31040;TVIC88100C;TVEE88103L;IC MOTTA DI LIVENZA;S. PIO X - MEDUNA DI L.;MEDUNA DI LIVENZA;SCUOLA PRIMARIA;TVIC88100C@istruzione.it;VIA S. BELLINO 18;TREVISO;VENETO;www.icmottadilivenza.gov.it;12.616639;45.805887
31057;TVIC83400V;TVAA83401Q;IC SILEA;MONTESSORI;SILEA;SCUOLA INFANZIA;TVIC83400V@istruzione.it;VIA TIEPOLO N. 2;TREVISO;VENETO;www.icsilea.gov.it;12.2921369;45.6622766
45100;ROIC82000Q;ROIC82000Q;ROVIGO 1;ROVIGO 1;ROVIGO;ISTITUTO COMPRENSIVO;ROIC82000Q@istruzione.it;VIA DELLA COSTITUZIONE 6;ROVIGO;VENETO;Non Disponibile;11.7982662;45.0781659
35037;PDIC86800X;PDEE868034;DI TEOLO;TEOLO-TREPONTI  PRIMARIA;TEOLO;SCUOLA PRIMARIA;PDIC86800X@istruzione.it;VIA MONTESSORI 18;PADOVA;VENETO;www.icteolo.gov.it;11.7107701;45.3691347
31044;TVIC87900C;TVEE87904N;IC MONTEBELLUNA 2;A. MANZONI;MONTEBELLUNA;SCUOLA PRIMARIA;TVIC87900C@istruzione.it;VIA XVIII GIUGNO1;TREVISO;VENETO;www.icmontebelluna2.gov.it;12.0411;45.797132
36040;VIIC863006;VIMM863017;IC TORRI DI Q.  VIA IPPOCASTANI;SMS  MAROLA TORRI DI Q.;TORRI DI QUARTESOLO;SCUOLA PRIMO GRADO;VIIC863006@istruzione.it;VIA IPPOCASTANI;VICENZA;VENETO;www.ictorri.gov.it;11.6332257;45.5375521
37132;VRIC88500B;VRAA885018;IC MAD. DI CAMPAGNA - S.MICHELE;BERNINI BURI;VERONA;SCUOLA INFANZIA;VRIC88500B@istruzione.it;VIA SOLFERINO 27;VERONA;VENETO;www.icestverona.gov.it;11.04822;45.4289171
36025;VIIC83300A;VIEE83302D;IC NOVENTA VIC. A.FOGAZZARO;PRIMARIA NOVENTA VIC. - C.P.L.;NOVENTA VICENTINA;SCUOLA PRIMARIA;VIIC83300A@istruzione.it;VIA G. MARCONI N. 2;VICENZA;VENETO;www.icsfogazzaronoventa.gov.it;11.538632;45.292167
45023;ROIC811001;ROEE811046;COSTA DI ROVIGO;SCARDONA FRANCESCO - COSTA;COSTA DI ROVIGO;SCUOLA PRIMARIA;ROIC811001@istruzione.it;VIA VITT.  EMANUELE II 162;ROVIGO;VENETO;www.iccostadirovigo.it;11.6961348;45.0463501
30026;VEIS012006;VEIS012006;GINO  LUZZATTO;GINO  LUZZATTO;PORTOGRUARO;ISTITUTO SUPERIORE;VEIS012006@istruzione.it;VIA GALILEI N. 5;VENEZIA;VENETO;Non Disponibile;12.8486717;45.7803418
35010;PDIC83500L;PDEE83501P;I.C.  SAN PIETRO IN GU';S.PIETRO IN GU' - MARCONI;SAN PIETRO IN GU;SCUOLA PRIMARIA;PDIC83500L@istruzione.it;VIA ASILO 12;PADOVA;VENETO;http://www.icsanpietroingu.gov.it;11.668833;45.614165
36020;VIIC814001;VIAA81402V;IC A. PALLADIO - POIANA; E. GUERRA  - ASIGLIANO -;ASIGLIANO VENETO;SCUOLA INFANZIA;VIIC814001@istruzione.it;VIA SAN MARTINO  1;VICENZA;VENETO;icspojana.gov.it;11.4486289;45.3063681
36040;VIIC89000E;VIIC89000E;I.C.  VAL LIONA   SOSSANO;I.C.  VAL LIONA   SOSSANO;SOSSANO;ISTITUTO COMPRENSIVO;VIIC89000E@istruzione.it;VIA S.G.BOSCO  4;VICENZA;VENETO;Non Disponibile;11.389858;45.426989
37133;VRIC88900P;VRAA88902L;IC VR 18 VERONETTA- PORTO;SOLELUNA;VERONA;SCUOLA INFANZIA;VRIC88900P@istruzione.it;VIA G.B. DOMASCHI 72;VERONA;VENETO;www.comprensivovr18.it;11.0098046;45.4321858
30038;VEIC861007;VEEE861019;I.C. MARGHERITA HACK;ANNA FRANK;SPINEA;SCUOLA PRIMARIA;VEIC861007@istruzione.it;VIA FREGENE 15;VENEZIA;VENETO;www.ic-margheritahack.it;12.1546492;45.4883228
30015;VEIC85000R;VEMM85001T;I.C. CHIOGGIA 3;G.OLIVI;CHIOGGIA;SCUOLA PRIMO GRADO;VEIC85000R@istruzione.it;BORGO S.GIOVANNI;VENEZIA;VENETO;www.chioggia3.it;12.8394952;45.773865
35030;PDIC85100E;PDEE85102N;IST. COMPR. RUBANO - BUONARROTI;RUBANO-SARMEOLA-MARCONI;RUBANO;SCUOLA PRIMARIA;PDIC85100E@istruzione.it;VIA BORROMEO 14;PADOVA;VENETO;www.icrubano.it;11.8129316;45.4220188
32020;BLIC82700B;BLEE82704L;IC ALLEGHE;ROCCA PIETORE;ROCCA PIETORE;SCUOLA PRIMARIA;BLIC82700B@istruzione.it;VIA CAPOLUOGO;BELLUNO;VENETO;www.icciauri.it;12.5247828;46.5853463
36028;VIIC85300G;VIAA85302D;IC ROSSANO V.TO  G. RODARI;SAN ZENONE;ROSSANO VENETO;SCUOLA INFANZIA;VIIC85300G@istruzione.it;VIA SAN ZENONE;VICENZA;VENETO;www.rodari-rossano.org;11.8053071;45.7160009
35017;PDIC86300R;PDMM86301T;DI PIOMBINO DESE;PIOMBINO DESE GEMELLI;PIOMBINO DESE;SCUOLA PRIMO GRADO;PDIC86300R@istruzione.it;VIA DANTE 9;PADOVA;VENETO;http://www.icpiombinodese.it/;11.9940889;45.6098566
35125;PDIC88600D;PDEE88602L;IX IC DI PADOVA CURBASTRO;G.RICCI CURBASTRO - PD;PADOVA;SCUOLA PRIMARIA;PDIC88600D@istruzione.it;VIA A.TASSONI17;PADOVA;VENETO;http://www.nonoicpadova.gov.it;11.8679668;45.3797685
35010;PDIC86500C;PDEE86504N;ISTITUTO COMPR. VIGODARZERE;VIGODARZERE/TAVO;VIGODARZERE;SCUOLA PRIMARIA;PDIC86500C@istruzione.it;VIA S. FRANCESCO 2;PADOVA;VENETO;www.icvigodarzere.gov.it;11.91362;45.553682
31055;TVIC82600X;TVMM826011;IC QUINTO DI TREVISO;SMS CIARDI QUINTO (IC);QUINTO DI TREVISO;SCUOLA PRIMO GRADO;TVIC82600X@istruzione.it;VIA DONATORI DEL SANGUE 1;TREVISO;VENETO;www.icquintotv.gov.it;12.1553096;45.6455162
31052;TVIC85700G;TVEE85702P;IC MASERADA SUL PIAVE;G. PASCOLI;MASERADA SUL PIAVE;SCUOLA PRIMARIA;TVIC85700G@istruzione.it;VIA DELLO STADIO 8;TREVISO;VENETO;www.icmaserada.gov.it;12.316945;45.748318
31020;TVIC846005;TVIC846005;IC SAN FIOR;IC SAN FIOR;SAN FIOR;ISTITUTO COMPRENSIVO;TVIC846005@istruzione.it;VIA ISIDORO MEL 8;TREVISO;VENETO;Non Disponibile;12.35524;45.91793
37020;VRIC86900D;VREE86903N;IC S.PIETRO IN CARIANO;PEDEMONTE PALLADIO A.;SAN PIETRO IN CARIANO;SCUOLA PRIMARIA;VRIC86900D@istruzione.it;VIA BOLLA 6;VERONA;VENETO;WWW.ICSANPIETROINCARIANO.GOV.IT;10.9201599;45.5032
37036;VRIC84000T;VRMM84001V;IC S.MARTINO B.A.;S. MARTINO B.A.- B. BARBARANI;SAN MARTINO BUON ALBERGO;SCUOLA PRIMO GRADO;VRIC84000T@istruzione.it;VIA  BENTEGODI  2;VERONA;VENETO;http://nuke.icsanmartinoscuole.it/;10.9908697;45.4359545
37012;VRIC81300D;VRMM81301E;IC BUSSOLENGO;BUSSOLENGO - L. DA VINCI;BUSSOLENGO;SCUOLA PRIMO GRADO;VRIC81300D@istruzione.it;VIA CARLO ALBERTO DALLA CHIESA 13;VERONA;VENETO;www.icbussolengo.gov.it;10.846687;45.466318
30141;VEIC81400N;VEIC81400N;I.C. U. FOSCOLO MURANO-BURANO;I.C. U. FOSCOLO MURANO-BURANO;VENEZIA;ISTITUTO COMPRENSIVO;VEIC81400N@istruzione.it;FONDAMENTA COLLEONI N. 15;VENEZIA;VENETO;Non Disponibile;12.3543957;45.4556545
36071;VIIS00200V;VIPS002019;IS   LEONARDO DA VINCI;L.S. DA VINCI ARZIGNANO;ARZIGNANO;LICEO SCIENTIFICO;VIIS00200V@istruzione.it;VIALE      VICENZA 27/A;VICENZA;VENETO;www.liceoarzignano.it;11.3462525;45.5174418
30174;VEIC82700Q;VEEE827052;GIULIO CESARE PAROLARI;D.A.MUNARETTO-CIPRESSINA;VENEZIA;SCUOLA PRIMARIA;VEIC82700Q@istruzione.it;VIA DEL GAZZATO 6;VENEZIA;VENETO;www.icparolari.gov.it;12.229291;45.5017374
31010;TVIC84300N;TVMM84301P;IC FARRA DI SOLIGO;SMS ZANELLA FARRA DI SOLIGO(IC);FARRA DI SOLIGO;SCUOLA PRIMO GRADO;TVIC84300N@istruzione.it;VIA        BRIGATA MAZZINI     46;TREVISO;VENETO;www.icfarra.it;12.09328;45.89511
30030;VEIC85700G;VEEE85702P;I.C. MIRANO 2;VITTORIO ALFIERI;MIRANO;SCUOLA PRIMARIA;VEIC85700G@istruzione.it;VIA VAROTARA 12;VENEZIA;VENETO;www.icmiranodue.gov.it;12.07641;45.50381
31015;TVIC867006;TVEE86705C;IC CONEGLIANO 2 GB CIMA;LA NOSTRA FAMIGLIA;CONEGLIANO;SCUOLA PRIMARIA;TVIC867006@istruzione.it;VIA COSTA ALTA;TREVISO;VENETO;www.icconegliano2cima.gov.it;12.279886;45.9002567
36010;VIIC847008;VIMM847019;IC COGOLLO  DON CARLO FRIGO ;SMS FRIGO COGOLLO DEL C.;COGOLLO DEL CENGIO;SCUOLA PRIMO GRADO;VIIC847008@istruzione.it;VIA  COLOMBARA 5;VICENZA;VENETO;www.ic-frigo.gov.it;11.4386;45.779
36025;VIMM141007;VICT71100A;CPIA DI VICENZA;CTP DI NOVENTA VICENTINA (IC FOGAZZARO);NOVENTA VICENTINA;CENTRO TERRITORIALE;VIMM141007@istruzione.it;VIA MARCONI3;VICENZA;VENETO;Non Disponibile;11.4782036;45.6996541
30015;VEIC85000R;VEEE85001V;I.C. CHIOGGIA 3;MARIO CHIEREGHIN;CHIOGGIA;SCUOLA PRIMARIA;VEIC85000R@istruzione.it;VIA PALMIRO TOGLIATTI 831;VENEZIA;VENETO;www.chioggia3.it;12.2781104;45.2022192
30174;VEIC82700Q;VEMM82701R;GIULIO CESARE PAROLARI;ENRICO FERMI;VENEZIA;SCUOLA PRIMO GRADO;VEIC82700Q@istruzione.it;VIA TIEPOLO 8;VENEZIA;VENETO;www.icparolari.gov.it;12.21023;45.51517
37062;VRIC86700T;VREE867032;IC DOSSOBUONO DI VILLAFRANCA;RIZZA DI VILLAFRANCA DI VERONA;VILLAFRANCA DI VERONA;SCUOLA PRIMARIA;VRIC86700T@istruzione.it;VIA STRADA LA RIZZA;VERONA;VENETO;www.icdossobuono.gov.it;10.9572391;45.4005999
37043;VRIC84600R;VREE846031;IC VILLA BARTOLOMEA;BATTISTI CESARE CASTAGNARO;CASTAGNARO;SCUOLA PRIMARIA;VRIC84600R@istruzione.it;VIA D.ALIGHIERI 27;VERONA;VENETO;icvillabartolomea.gov.it;11.409878;45.122542
35030;PDIC89800Q;PDMM89801R;SELVAZZANO DENTRO II;SELVAZZANO CESAROTTI;SELVAZZANO DENTRO;SCUOLA PRIMO GRADO;PDIC89800Q@istruzione.it;VIA  CESAROTTI   3;PADOVA;VENETO;WWW.ICSELVAZZANO2.IT;11.782735;45.393698
31033;TVIS02200R;TVRC02201Q;I.S.I.S.S. C. ROSSELLI;I.S.I.S.S. C. ROSSELLI;CASTELFRANCO VENETO;IST  PROF  PER I SERVIZI COMMERCIALI;TVIS02200R@istruzione.it;VIA G. RIZZETTI 10;TREVISO;VENETO;www.istitutorosselli.net;11.9266714;45.667934
37010;VRIC83300P;VRMM83301Q;IC CAVAION;CAVAION G. FRACASTORO;CAVAION VERONESE;SCUOLA PRIMO GRADO;VRIC83300P@istruzione.it;VIA        CAVALLINE           57;VERONA;VENETO;www.iccavaion.gov.it;10.77445;45.54093
37010;VRIC85000C;VREE85001E;IC S.AMBROGIO V.P;S.AMBR.VALPOLICELLA G.PASCOLI;SANT'AMBROGIO DI VALPOLICELLA;SCUOLA PRIMARIA;VRIC85000C@istruzione.it;VIA MARCONI 13;VERONA;VENETO;www.icsantambrogio.it;10.7659419;45.5637949
37126;VRIC880008;VREE88001A;IC VR 09 VALDONEGA;FRACCAROLI A.;VERONA;SCUOLA PRIMARIA;VRIC880008@istruzione.it;VIA CESIOLO 5;VERONA;VENETO;WWW.ISTITUTOCOMPRENSIVOVALDONEGA.IT;10.9877234;45.452686
37045;VRIC89800D;VRAA89801A;IC 01 LEGNAGO;CASETTE C. COLLODI;LEGNAGO;SCUOLA INFANZIA;VRIC89800D@istruzione.it;VIA CASETTE 1;VERONA;VENETO;ww.legnago1.gov.it;11.3080035;45.1860603
36013;VIIC827003;VIAA827021;IC PIOVENE ROCCHETTE- FOGAZZARO;IC PIOVENE-GRUMELLO;PIOVENE-ROCCHETTE;SCUOLA INFANZIA;VIIC827003@istruzione.it;VIA LENGORE;VICENZA;VENETO;www.ics-piovene-rocchette.vi.it;11.4259167;45.7465067
30016;VEVC030009;VEVC030009;CONVITTO ANNESSO E. CORNARO;CONVITTO ANNESSO E. CORNARO;IESOLO;CONVITTO ANNESSO;VEVC030009@istruzione.it;VIALE MARTIN LUTHER KING 5;VENEZIA;VENETO;Non Disponibile;12.647849;45.511963
45100;ROIC82100G;ROMM82101L;ROVIGO 2;C.PARENZO - ROVIGO;ROVIGO;SCUOLA PRIMO GRADO;ROIC82100G@istruzione.it;LARGO PARENZO 1;ROVIGO;VENETO;http://www.icrovigo2.gov.it;11.79655;45.06834
37100;VRTL01000T;VRTL010518;CANGRANDE DELLA SCALA;CANGRANDE DELLA SCALA - SERALE;VERONA;ISTITUTO TECNICO PER GEOMETRI;VRTL01000T@istruzione.it;CORSO PORTA NUOVA 66;VERONA;VENETO;www.itscangrande.gov.it;10.9888389;45.4333993
37141;VRIC88800V;VREE888011;IC VR 17 MONTORIO;BETTELONI C.;VERONA;SCUOLA PRIMARIA;VRIC88800V@istruzione.it;PIAZZ.LE BUCCARI 1/A;VERONA;VENETO;vric88800v@istruzione.it;11.06346;45.45786
35132;PDIC88100A;PDAA881017;IV IC DI PADOVA ROSMINI;IL QUADRIFOGLIO;PADOVA;SCUOLA INFANZIA;PDIC88100A@istruzione.it;VIA BACH;PADOVA;VENETO;www.4icpadova.it;11.8961208;45.4223553
32042;BLIC808002;BLEE808036;IC DOMEGGE;G. MARCONI DI CALALZO DI CAD.;CALALZO DI CADORE;SCUOLA PRIMARIA;BLIC808002@istruzione.it;VIA GIOVANNI XXIII 13;BELLUNO;VENETO;www.istitutocomprdomegge.gov.it;12.3822078;46.445798
35048;PDIC854002;PDEE854058;SOLESINO-STANGHELLA;GALILEO GALILEI;STANGHELLA;SCUOLA PRIMARIA;PDIC854002@istruzione.it;VIA CONCETTO MARCHESI 30;PADOVA;VENETO;www.icsolesino-stanghella.gov.it;11.7560436;45.1332285
35027;PDIC84700V;PDIC84700V;NOVENTA PADOVANA G. SANTINI ;NOVENTA PADOVANA G. SANTINI ;NOVENTA PADOVANA;ISTITUTO COMPRENSIVO;PDIC84700V@istruzione.it;VIA VALMARANA33;PADOVA;VENETO;Non Disponibile;11.95117;45.41783
31021;TVPS04000Q;TVPS04000Q;LS GIUSEPPE BERTO;LS GIUSEPPE BERTO;MOGLIANO VENETO;LICEO SCIENTIFICO;TVPS04000Q@istruzione.it;VIA  BARBIERO 82;TREVISO;VENETO;www.liceoberto.it;12.2452695;45.5578688
31033;TVIC816009;TVEE81604E;IC CASTELFRANCO V.TO 2;G.VERDI;CASTELFRANCO VENETO;SCUOLA PRIMARIA;TVIC816009@istruzione.it;VIA SANTA LUCIA 2;TREVISO;VENETO;www.ic2castelfranco.gov.it;11.9634368;45.6548766
31054;TVIC86500E;TVEE86501L;IC CRESPANO DEL GRAPPA;ALDO FANTINA - POSSAGNO;POSSAGNO;SCUOLA PRIMARIA;TVIC86500E@istruzione.it;VIA MOLINETTO N. 10;TREVISO;VENETO;www.iccrespano.gov.it;11.8714552;45.8496503
45100;ROIC82100G;ROMM82102N;ROVIGO 2;VENEZZE - ROVIGO;ROVIGO;SCUOLA PRIMO GRADO;ROIC82100G@istruzione.it;VIA  A. CASALINI 25;ROVIGO;VENETO;http://www.icrovigo2.gov.it;11.7902297;45.0688467
32025;BLIC83200V;BLEE832022;IC  SEDICO;FRAZ. LIBANO;SEDICO;SCUOLA PRIMARIA;BLIC83200V@istruzione.it;VIA BOLAGO 31;BELLUNO;VENETO;www.istitutocomprensivosedico-sospirolo.gov.it;12.15461;46.1518299
32023;BLIC82700B;BLMM82701C;IC ALLEGHE;DINO BUZZATI - ALLEGHE;ALLEGHE;SCUOLA PRIMO GRADO;BLIC82700B@istruzione.it;VIA CARDUCCI 6;BELLUNO;VENETO;www.icciauri.it;11.9951549;46.438226
37023;VRIC815005;VREE81504A;IC GREZZANA;ALCENAGO;GREZZANA;SCUOLA PRIMARIA;VRIC815005@istruzione.it;VIA VIGO;VERONA;VENETO;www.grezzanascuole.gov.it;10.9862828;45.5494097
45026;ROIC81700X;ROMM817011;LENDINARA;A.MARIO - LENDINARA;LENDINARA;SCUOLA PRIMO GRADO;ROIC81700X@istruzione.it;VIA MARCONI 36;ROVIGO;VENETO;www.icslendinara.gov.it;11.5951861;45.0857254
30015;VEIC85100L;VEAA85101D;I.C. CHIOGGIA 1;COLONIA PADOAN;CHIOGGIA;SCUOLA INFANZIA;VEIC85100L@istruzione.it;CALLE SAN NICOLO' 1/8;VENEZIA;VENETO;www.chioggia1.gov.it;13.018738;45.718845
30033;VEIC86600A;VEAA866017;I.C.ELISABETTA BETTY PIERAZZO;ITALO CALVINO;NOALE;SCUOLA INFANZIA;VEIC86600A@istruzione.it;VIA LA FONDA - NOALE;VENEZIA;VENETO;www.icnoale.gov.it;12.0695974;45.5530766
36100;VIPM010008;VIPM010008;IM  DON GIUSEPPE FOGAZZARO;IM  DON GIUSEPPE FOGAZZARO;VICENZA;ISTITUTO MAGISTRALE;VIPM010008@istruzione.it;CONTRA' BURCI 21;VICENZA;VENETO;http://www.fogazzaro.it;11.5509388;45.5443818
36040;VIIC82500B;VIEE82504L;IC LUGO DI VICENZA NODARI;FARA VIC.- S.GIORGIO;FARA VICENTINO;SCUOLA PRIMARIA;VIIC82500B@istruzione.it;VIA PERLENA;VICENZA;VENETO;www.icslugodivicenza.gov.it/;11.5831698;45.7293962
35141;PDPS030003;PDPS030003;LS  I.NIEVO-PADOVA;LS  I.NIEVO-PADOVA;PADOVA;LICEO SCIENTIFICO;PDPS030003@istruzione.it;VIA BARBARIGO38;PADOVA;VENETO;www.liceonievo.gov.it;11.8723734;45.4044944
35020;PDIC89400C;PDEE89405P;NICOLO' TOMMASEO;SCUOLA PRIMARIA I.NIEVO;TERRASSA PADOVANA;SCUOLA PRIMARIA;PDIC89400C@istruzione.it;VIA MADONNA 3;PADOVA;VENETO;www.ictommaseo.gov.it;11.9074715;45.2465087
35136;PDIC83000D;PDMM83001E;XIII IC DI PADOVA TARTINI;G. TARTINI  XIII I.C.;PADOVA;SCUOLA PRIMO GRADO;PDIC83000D@istruzione.it;VIA VICENTINI 21;PADOVA;VENETO;www.tartinipadova.it;11.84015;45.40932
32030;BLIC81900C;BLEE81903L;IC  SANTA GIUSTINA  G. RODARI;SAN GREGORIO NELLE ALPI;SAN GREGORIO NELLE ALPI;SCUOLA PRIMARIA;BLIC81900C@istruzione.it;VIA MONTE PIZZOCCO 2;BELLUNO;VENETO;www.rodari.org;12.0277459;46.1047507
31030;TVIC82300C;TVMM82301D;IC CASIER;SMS CASIER (I.C.);CASIER;SCUOLA PRIMO GRADO;TVIC82300C@istruzione.it;VIA        PESCHIERE           16;TREVISO;VENETO;www.iccasier.gov.it;12.2583665;45.6339414
31100;TVIC87100T;TVAA87101P;IC TREVISO 2 SERENA;XXV APRILE;TREVISO;SCUOLA INFANZIA;TVIC87100T@istruzione.it;VIA PALUDETTI;TREVISO;VENETO;www.ic2serenatreviso.gov.it;12.2138176;45.6651405
31100;TVIC87100T;TVEE87101X;IC TREVISO 2 SERENA;R.DEGLI AZZONI;TREVISO;SCUOLA PRIMARIA;TVIC87100T@istruzione.it;VIA PALUDETTI;TREVISO;VENETO;www.ic2serenatreviso.gov.it;12.2138176;45.6651405
37136;VRIC88300Q;VRAA88301L;IC VR 12 GOLOSINE;GOLOSINE;VERONA;SCUOLA INFANZIA;VRIC88300Q@istruzione.it;VIA BISENZIO 11;VERONA;VENETO;WWW.COMPRENSIVOVR12.IT;10.959036;45.415538
36061;VIIC88100Q;VIEE88103X;IC 3  BASSANO DEL GRAPPA;BASSANO - MARCHESANE;BASSANO DEL GRAPPA;SCUOLA PRIMARIA;VIIC88100Q@istruzione.it;VIA ROLANDI;VICENZA;VENETO;www.ic3bassano.gov.it;11.6996015;45.7511738
35010;PDIC84200Q;PDEE842041;DI CURTAROLO E CAMPO S.MARTINO;CAMPO S.MARTINO-MARSANGO;CAMPO SAN MARTINO;SCUOLA PRIMARIA;PDIC84200Q@istruzione.it;VIA ALCIDE DE GASPERI 43;PADOVA;VENETO;www.tribanchi.gov.it;11.835782;45.55177
35028;PDIS02100V;PDTD021015;DE NICOLA;I.T.C. (S.A.DE NICOLA) - PIOVE S.;PIOVE DI SACCO;IST TEC COMMERCIALE E PER GEOMETRI;PDIS02100V@istruzione.it;VIA PARINI10/C;PADOVA;VENETO;www.denicolapiovedisacco.gov.it;12.03371;45.301691
31100;TVPM010001;TVPM010001;IM DUCA DEGLI ABRUZZI;IM DUCA DEGLI ABRUZZI;TREVISO;ISTITUTO MAGISTRALE;TVPM010001@istruzione.it;VIA CACCIANIGA 5;TREVISO;VENETO;www.ducadegliabruzzitreviso.gov.it;12.2384692;45.6683527
31022;TVIC81300T;TVEE81301X;IC PREGANZIOL;CARLO TEGON;PREGANZIOL;SCUOLA PRIMARIA;TVIC81300T@istruzione.it;VIA SAMBUGHE' 170;TREVISO;VENETO;www.icpreganziol.gov.it;12.2150102;45.5969704
37063;VRIS01200T;VRTA01202P;STEFANI - BENTEGODI;STEFANI - BENTEGODI CALDIERO;CALDIERO;ISTITUTO TECNICO AGRARIO;VRIS01200T@istruzione.it;VIA STAZIONE 3;VERONA;VENETO;www.stefanibentegodi.it;10.9153302;45.392282
45019;ROIC80500N;ROMM80501P;TAGLIO DI PO;E.MAESTRI - TAGLIO DI PO;TAGLIO DI PO;SCUOLA PRIMO GRADO;ROIC80500N@istruzione.it;VIA MANZONI;ROVIGO;VENETO;www.scuoletagliodipo.gov.it;12.2162251;45.003399
37138;VRIC83900N;VREE83902R;VR 06 CHIEVO BASSONA B.GO N.;DALL'OCA BIANCA ANGELO;VERONA;SCUOLA PRIMARIA;VRIC83900N@istruzione.it;VIA SELINUNTE;VERONA;VENETO;www.ic6verona.gov.it;10.9591564;45.4494767
30030;VEIC80700E;VEIC80700E;DANTE ALIGHIERI;DANTE ALIGHIERI;SALZANO;ISTITUTO COMPRENSIVO;VEIC80700E@istruzione.it;VIA MEUCCI N. 2;VENEZIA;VENETO;Non Disponibile;12.10101;45.52342
32044;BLIC82400X;BLEE824012;IC PIEVE DI CADORE;P.DI CADORE CAP. SCUOLA NUOVA;PIEVE DI CADORE;SCUOLA PRIMARIA;BLIC82400X@istruzione.it;P.LE MARTIRI DELLA LIBERTA' 7;BELLUNO;VENETO;www.icpievedicadore.it;12.3724142;46.4266486
30175;VEIC870002;VEMM870013;I.C. F. GRIMANI;LUIGI  EINAUDI;VENEZIA;SCUOLA PRIMO GRADO;VEIC870002@istruzione.it;VIA B. CANAL N. 20;VENEZIA;VENETO;www.icnoale.gov.it;12.2224318;45.4765989
32036;BLIC83200V;BLEE832011;IC  SEDICO;SEDICO;SEDICO;SCUOLA PRIMARIA;BLIC83200V@istruzione.it;VIA STADIO 17;BELLUNO;VENETO;www.istitutocomprensivosedico-sospirolo.gov.it;12.09033;46.11225
32032;BLIC83300P;BLAA83301G;IC  FELTRE;VIGNUI;FELTRE;SCUOLA INFANZIA;BLIC83300P@istruzione.it;VIA VIGNUI 1;BELLUNO;VENETO;www.comprensivofeltre.it;11.9125295;46.0602351
32038;BLIC81300D;BLEE81301G;IC QUERO VAS;SALVO D'ACQUISTO - QUERO;QUERO VAS;SCUOLA PRIMARIA;BLIC81300D@istruzione.it;VIA XXXI OTTOBRE;BELLUNO;VENETO;www.icquero.it;11.904324;46.017085
37122;VRVE01000P;VRVE01000P;AGLI ANGELI;AGLI ANGELI;VERONA;EDUCANDATO;VRVE01000P@istruzione.it;VIA CESARE BATTISTI 8;VERONA;VENETO;www.educandatoangeli.it;10.9913559;45.4344033
37029;VRIS01200T;VRRA01203X;STEFANI - BENTEGODI;STEFANI-BENTEGODI S.PIETRO INCARIANO;SAN PIETRO IN CARIANO;IST PROF PER L'AGRICOLTURA E L'AMBIENTE;VRIS01200T@istruzione.it;VIA OMERO SPERI 6;VERONA;VENETO;www.stefanibentegodi.it;10.910565;45.5164997
35137;PDIS02700T;PDTD027014;I.I.S. L.DA VINCI-PADOVA;I.T.T. (S.A. IIS L.DA VINCI) - PD;PADOVA;ISTITUTO TECNICO COMMERCIALE;PDIS02700T@istruzione.it;VIA SAN GIOVANNI DI VERDARA 36;PADOVA;VENETO;www.leodavinci.gov.it;11.86991;45.41436
35134;PDIS02800N;PDSL028011;I.I.S.G.VALLE;L.A.(S.A. IIS VALLE) -PD;PADOVA;LICEO ARTISTICO;PDIS02800N@istruzione.it;VIA T. MINIO 13;PADOVA;VENETO;www.ipvalle.it;11.8808729;45.4238768
31040;TVIC88100C;TVEE88104N;IC MOTTA DI LIVENZA;G.MARCONI - CESSALTO;CESSALTO;SCUOLA PRIMARIA;TVIC88100C@istruzione.it;VIA L. EINAUDI 13;TREVISO;VENETO;icmottadilivenza.gov.it;12.610018;45.7148759
31057;TVIC83400V;TVAA83402R;IC SILEA;SCUOLA INFANZIA;SILEA;SCUOLA INFANZIA;TVIC83400V@istruzione.it;VIA PANTIERA N. 6/A;TREVISO;VENETO;www.icsilea.gov.it;12.3242029;45.6365219
36045;VIIS01100N;VIRI011019;ISTITUTO ISTRUZIONE SUPERIORE DI LONIGO;IPS-IEFP G.SARTORI LONIGO;LONIGO;IST PROF INDUSTRIA E ARTIGIANATO;VIIS01100N@istruzione.it;VIA SCORTEGAGNA 37-25;VICENZA;VENETO;www.iislonigo.it;11.3912718;45.3873238
30015;VEIC85100L;VEEE85101P;I.C. CHIOGGIA 1;GIUSEPPE MARCHETTI;CHIOGGIA;SCUOLA PRIMARIA;VEIC85100L@istruzione.it;VIALE REPUBBLICA 2;VENEZIA;VENETO;www.chioggia1.gov.it;12.2752;45.21721
36040;VIIC863006;VIMM863028;IC TORRI DI Q.  VIA IPPOCASTANI;SMS  GRUMOLO DELLE ABBADESSE;GRUMOLO DELLE ABBADESSE;SCUOLA PRIMO GRADO;VIIC863006@istruzione.it;VIA   ROMA;VICENZA;VENETO;www.ictorri.gov.it;11.6046393;45.525336
36020;VIIC834006;VIEE834029;IC LONGARE BIZIO;CASTEGNERO-VILLAGANZ.;CASTEGNERO;SCUOLA PRIMARIA;VIIC834006@istruzione.it;VIA PASUBIO 12;VICENZA;VENETO;iclongare.gov.it;11.6124282;45.4345766
45030;ROIC811001;ROEE811035;COSTA DI ROVIGO;P.ZA 43 MARTIRI - VILLAMARZANA;VILLAMARZANA;SCUOLA PRIMARIA;ROIC811001@istruzione.it;PIAZZA QUARANTATRE MARTIRI;ROVIGO;VENETO;www.iccostadirovigo.it;11.6879347;45.0080885
30020;VEIC82300C;VEAA82304C;GIAN FRANCESCO MALIPIERO;GIRASOLE;MARCON;SCUOLA INFANZIA;VEIC82300C@istruzione.it;VIA MARMOLADA 17;VENEZIA;VENETO;www.comprensivomalipiero.it;12.296103;45.5633089
30010;VEIC820001;VEAA82001T;ANTONIO GRAMSCI;MADONNA DI FATIMA;CAMPONOGARA;SCUOLA INFANZIA;VEIC820001@istruzione.it;VIA S.PELLICO 1 CAMPOVERARDO;VENEZIA;VENETO;www.icgramscidicamponogara.it;12.0632172;45.3941085
30026;VEIS013002;VEIS013002;LEONARDO  DA VINCI;LEONARDO  DA VINCI;PORTOGRUARO;ISTITUTO SUPERIORE;VEIS013002@istruzione.it;VIA GALILEI N. 1;VENEZIA;VENETO;www.itisdavinci.it;12.8485767;45.7800706
30173;VEIS019001;VETL01901N;ANTONIO  PACINOTTI;G. MASSARI;VENEZIA;ISTITUTO TECNICO PER GEOMETRI;VEIS019001@istruzione.it;VIA CANEVE 93;VENEZIA;VENETO;www.iispacinottive.it;12.2476703;45.496147
32028;BLIC816001;BLAA81603X;IC TRICHIANA;TRICHIANA;TRICHIANA;SCUOLA INFANZIA;BLIC816001@istruzione.it;VIA BARP 2;BELLUNO;VENETO;http://comprensivoditrichiana.blogspot.com/;12.15497;46.156023
37044;VRIS008006;VRPS00801L;GUARINO VERONESE;A.M. ROVEGGIO;COLOGNA VENETA;LICEO SCIENTIFICO;VRIS008006@istruzione.it;VIA COLONELLO GASPARI2;VERONA;VENETO;www.guarinoveronese.it;11.3825042;45.305711
36043;VIIC864002;VIAA86401V;I.C. CAMISANO VICENTINO;SCUOLA INFANZIA G. RODARI;CAMISANO VICENTINO;SCUOLA INFANZIA;VIIC864002@istruzione.it;VIA PONTE NAPOLEONE   N.2;VICENZA;VENETO;www.ic-camisano.vi.it;11.7021858;45.5314906
30038;VEIC861007;VEEE86102A;I.C. MARGHERITA HACK;MARCO POLO;SPINEA;SCUOLA PRIMARIA;VEIC861007@istruzione.it;VIA M. POLO 2;VENEZIA;VENETO;www.ic-margheritahack.it;12.148938;45.498208
30015;VEIC85100L;VEMM85101N;I.C. CHIOGGIA 1;SILVIO PELLICO;CHIOGGIA;SCUOLA PRIMO GRADO;VEIC85100L@istruzione.it;VIA GIUSEPPE MAZZINI 12;VENEZIA;VENETO;www.chioggia1.gov.it;12.1336084;45.4394816
35042;PDIC89300L;PDAA89305N;ESTE - G.PASCOLI;GIOVANNI PAOLO II;ESTE;SCUOLA INFANZIA;PDIC89300L@istruzione.it;VIA SALVO D'ACQUISTO 13;PADOVA;VENETO;www.ic-este.it;11.6726577;45.231948
36035;VIIC85400B;VIAA854018;IC MARANO VICENTINO;IC MARANO - CAP. - SANTA LUCIA;MARANO VICENTINO;SCUOLA INFANZIA;VIIC85400B@istruzione.it;VIA SAN VINCENZO 2;VICENZA;VENETO;www.icmaranovic.gov.it;11.4322506;45.6957933
36078;VIIC88000X;VIIC88000X;IC 2  VALDAGNO;IC 2  VALDAGNO;VALDAGNO;ISTITUTO COMPRENSIVO;VIIC88000X@istruzione.it;VIA LUNGO AGNO MANZONI 17;VICENZA;VENETO;Non Disponibile;11.303511;45.646954
35011;PDIC862001;PDMM862012;ISTIT. COMPR.  CAMPODARSEGO;CAMPODARSEGO;CAMPODARSEGO;SCUOLA PRIMO GRADO;PDIC862001@istruzione.it;VIA G.DA CAVINO 2;PADOVA;VENETO;www.scuole-statali-campodarsego.it/index.htm;11.90852;45.50087
35125;PDIC88600D;PDEE88601G;IX IC DI PADOVA CURBASTRO;A.ORIANI;PADOVA;SCUOLA PRIMARIA;PDIC88600D@istruzione.it;VIA DELLE SCUOLE 1;PADOVA;VENETO;http://www.nonoicpadova.gov.it;11.8701903;45.3741603
35010;PDIC86500C;PDEE86503L;ISTITUTO COMPR. VIGODARZERE;VIGODARZERE/TERRAGLIONE;VIGODARZERE;SCUOLA PRIMARIA;PDIC86500C@istruzione.it;VIA TERRAGLIONE 36;PADOVA;VENETO;www.icvigodarzere.gov.it;11.8941797;45.4849198
31049;TVIS004007;TVTF00401Q;IS VERDI;ITIS (S.C. I.S. VERDI VALDOBBIADENE);VALDOBBIADENE;ISTITUTO TECNICO INDUSTRIALE;TVIS004007@istruzione.it;A F. VENANZIO 21;TREVISO;VENETO;www.isissverdi.it;11.9975238;45.8985538
31030;TVIC85800B;TVAA858018;IC BREDA DI PIAVE;SCUOLA DELL'INFANZIA VACIL;BREDA DI PIAVE;SCUOLA INFANZIA;TVIC85800B@istruzione.it;VIA POZZETTI 12;TREVISO;VENETO;www.icbreda.gov.it;12.310559;45.7078768
31030;TVIC85600Q;TVIC85600Q;IC CARBONERA;IC CARBONERA;CARBONERA;ISTITUTO COMPRENSIVO;TVIC85600Q@istruzione.it;VIA ROMA 56;TREVISO;VENETO;Non Disponibile;12.2280356;45.7810606
37060;VRIC83800T;VRMM83801V;IC LUGAGNANO DI SONA;LUGAGNANO - ANNA FRANK;SONA;SCUOLA PRIMO GRADO;VRIC83800T@istruzione.it;VIA        CARDUCCI            10;VERONA;VENETO;www.iclugagnano.gov.it;10.8965;45.43247
37139;VRIC83900N;VRMM83901P;VR 06 CHIEVO BASSONA B.GO N.;VR N.6 - FAINELLI - GANDHI;VERONA;SCUOLA PRIMO GRADO;VRIC83900N@istruzione.it;VIA        PUGLIE;VERONA;VENETO;www.ic6libero.gov.it;10.9496203;45.4557718
37023;VRIC815005;VREE815028;IC GREZZANA;ROMAGNANO - AZZAGO;GREZZANA;SCUOLA PRIMARIA;VRIC815005@istruzione.it;VIA VILLA 53;VERONA;VENETO;www.grezzanascuole.gov.it;11.0479696;45.5455652
37033;VRMM136004;VRMM709012;CPIA DI VERONA;CASA CIRCONDARIALE DI VERONA;VERONA;SCUOLA PRIMO GRADO;VRMM136004@istruzione.it;VIA S.MICHELE 15;VERONA;VENETO;Non Disponibile;11.0443579;45.4426369
30016;VEIC81500D;VEIC81500D;ITALO CALVINO;ITALO CALVINO;IESOLO;ISTITUTO COMPRENSIVO;VEIC81500D@istruzione.it;PIAZZA MATTEOTTI  N. 12;VENEZIA;VENETO;Non Disponibile;12.63862;45.53724
31033;TVIC816009;TVAA816027;IC CASTELFRANCO V.TO 2;SCUOLA INFANZIA CAMPIGO;CASTELFRANCO VENETO;SCUOLA INFANZIA;TVIC816009@istruzione.it;VIA CALCARA;TREVISO;VENETO;www.ic2castelfranco.gov.it;11.9590741;45.6554925
36055;VIIC82200X;VIMM822011;IST. COMPRENSIVO P. ANTONIBON;SMS ANTONIBON NOVE;NOVE;SCUOLA PRIMO GRADO;VIIC82200X@istruzione.it;VIA SATURNO4;VICENZA;VENETO;www.comprensivodinove.com;11.6832396;45.7262847
30174;VEIC82700Q;VEEE827063;GIULIO CESARE PAROLARI;EX VILLA MEDICO;VENEZIA;SCUOLA PRIMARIA;VEIC82700Q@istruzione.it;VIA CASTELLANA 154/B;VENEZIA;VENETO;www.icparolari.gov.it;12.2077832;45.5155493
30035;VEIC85700G;VEEE85703Q;I.C. MIRANO 2;ALBERTO AZZOLINI;MIRANO;SCUOLA PRIMARIA;VEIC85700G@istruzione.it;VIA VILLAFRANCA 20/A;VENEZIA;VENETO;www.icmiranodue.gov.it;12.1206079;45.4938455
32035;BLIC81900C;BLEE81901E;IC  SANTA GIUSTINA  G. RODARI;FRAZ. MEANO;SANTA GIUSTINA;SCUOLA PRIMARIA;BLIC81900C@istruzione.it;P.ZZA ALVISI 17;BELLUNO;VENETO;www.rodari.org;12.0661674;46.1021874
36030;VIIC83600T;VIMM83602X;IC M. PASUBIO TORREBELVICINO;SMS  VALLI DEL PASUBIO;VALLI DEL PASUBIO;SCUOLA PRIMO GRADO;VIIC83600T@istruzione.it;VIA  MONS. BICEGO 2;VICENZA;VENETO;www.icmontepasubio.it;11.2635522;45.739144
36065;VIIC80700T;VIEE80701X;IC MUSSOLENTE  GIARDINO;MUSSOLENTE;MUSSOLENTE;SCUOLA PRIMARIA;VIIC80700T@istruzione.it;VIA CENTRO;VICENZA;VENETO;www.icmussolente.it;11.3732796;45.6355744
36040;VIIC814001;VIEE81408A;IC A. PALLADIO - POIANA;G.MARCONI - ALONTE -;ALONTE;SCUOLA PRIMARIA;VIIC814001@istruzione.it;VIA ROMA 1;VICENZA;VENETO;icspojana.gov.it;11.65967;45.52087
30015;VEIC85000R;VEEE85002X;I.C. CHIOGGIA 3;A. E D. BALLARIN;CHIOGGIA;SCUOLA PRIMARIA;VEIC85000R@istruzione.it;VIA PASCOLON;VENEZIA;VENETO;www.chioggia3.it;12.1766477;45.2233525
30027;VEIC82800G;VEMM82801L;LUCIA  SCHIAVINATO;SCHIAVINATO;SAN DONA' DI PIAVE;SCUOLA PRIMO GRADO;VEIC82800G@istruzione.it;VIA REPUBBLICA 74;VENEZIA;VENETO;www.icschiavinato.it;12.5824408;45.6288413
37060;VRIC873005;VRMM873027;IC SANGUINETTO;RONCANOVA - A. PASETTO;GAZZO VERONESE;SCUOLA PRIMO GRADO;VRIC873005@istruzione.it;VIA        A. MORO             27;VERONA;VENETO;www.icsanguinetto.gov.it;10.9364348;45.2719922
37040;VRIC84600R;VREE84602X;IC VILLA BARTOLOMEA;GIULIANI P. R. CARPI;VILLA BARTOLOMEA;SCUOLA PRIMARIA;VRIC84600R@istruzione.it;VIA LOVARA;VERONA;VENETO;icvillabartolomea.gov.it;11.3952547;45.1333418
35030;PDIC89700X;PDMM897011;SELVAZZANO DENTRO I;ALBINONI TENCAROLA E CASELLE;SELVAZZANO DENTRO;SCUOLA PRIMO GRADO;PDIC89700X@istruzione.it;VIA GENOVA4;PADOVA;VENETO;www.albinoni.gov.it;11.814062;45.389987
31100;TVIS01600D;TVRF016016;IS F.BESTA;I.P.S.S.S TREVISO(S.C. I.S.BESTA);TREVISO;IST PROF PER I SERVIZI SOCIALI;TVIS01600D@istruzione.it;VIA SAN PELAJO N. 30;TREVISO;VENETO;www.bestatreviso.gov.it;12.2395101;45.6840211
37020;VRIC83200V;VRMM832021;IC FUMANE - LORENZI B.;S.ANNA D'ALFAEDO-G.A.DALLA BONA;SANT'ANNA D'ALFAEDO;SCUOLA PRIMO GRADO;VRIC83200V@istruzione.it;VIA MONSIGNOR RONCARI 2;VERONA;VENETO;www.fumanescuola.it;10.95208;45.628
45035;ROIS003006;ROIS003006;I.I.S. BRUNO MUNARI - CASTELMASSA;I.I.S. BRUNO MUNARI - CASTELMASSA;CASTELMASSA;ISTITUTO SUPERIORE;ROIS003006@istruzione.it;VIA MATTEOTTI 34;ROVIGO;VENETO;Non Disponibile;11.307369;45.018836
36040;VIIC85200Q;VIEE85203X;IC ARSIERO  P.MAROCCO;IC ARSIERO -TONEZZA;TONEZZA DEL CIMONE;SCUOLA PRIMARIA;VIIC85200Q@istruzione.it;VIA DELLA CASARA;VICENZA;VENETO;http://www.icarsiero.gov.it;11.345919;45.8611696
30122;VEIS00800E;VETH00801E;VENDRAMIN CORNER;S. VENIER;VENEZIA;ISTITUTO TECNICO NAUTICO;VEIS00800E@istruzione.it;CASTELLO 787;VENEZIA;VENETO;www.ptpvenezia.it;12.3587;45.43081
37063;VRIS011002;VRPS01101C;ETTORE BOLISANI;ETTORE BOLISANI;ISOLA DELLA SCALA;LICEO SCIENTIFICO;VRIS011002@istruzione.it;VIALE RIMEMBRANZA 42;VERONA;VENETO;www.istitutobolisani.it;11.0046572;45.2697209
37142;VRIC887003;VREE887048;IC VR 16 VALPANTENA;S. MARIA IN STELLE-CALIARI P.;VERONA;SCUOLA PRIMARIA;VRIC887003@istruzione.it;VIA SEZANO 2;VERONA;VENETO;www.ic16verona.gov.it;11.0322501;45.4954515
32040;BLIC808002;BLEE808025;IC DOMEGGE;D. ALIGHIERI DI DOMEGGE DI C.;DOMEGGE DI CADORE;SCUOLA PRIMARIA;BLIC808002@istruzione.it;VIA GARIBALDI 7;BELLUNO;VENETO;www.istitutocomprdomegge.gov.it;12.2233805;46.4345385
35047;PDIC854002;PDEE854047;SOLESINO-STANGHELLA;FRANCESCO PETRARCA;SOLESINO;SCUOLA PRIMARIA;PDIC854002@istruzione.it;VIALE PAPA GIOVANNI XXIII 106;PADOVA;VENETO;www.icsolesino-stanghella.gov.it;11.7418684;45.1805751
35010;PDIC846003;PDIC846003;DI CADONEGHE;DI CADONEGHE;CADONEGHE;ISTITUTO COMPRENSIVO;PDIC846003@istruzione.it;VIA CONCHE1;PADOVA;VENETO;Non Disponibile;11.91094;45.4494
31033;TVIC816009;TVEE81605G;IC CASTELFRANCO V.TO 2;SAN FLORIANO;CASTELFRANCO VENETO;SCUOLA PRIMARIA;TVIC816009@istruzione.it;VIA MOLINO DI FERRO N. 4;TREVISO;VENETO;www.ic2castelfranco.gov.it;11.9726349;45.6963917
31010;TVIC86500E;TVEE86502N;IC CRESPANO DEL GRAPPA;M.FILIPPIN FERRARESE - PADERNO;PADERNO DEL GRAPPA;SCUOLA PRIMARIA;TVIC86500E@istruzione.it;VIA ROMA N. 5;TREVISO;VENETO;www.iccrespano.gov.it;11.868528;45.784095
32020;BLIC82600G;BLMM82602N;IC CENCENIGHE AGORDINO;SCUOLA SEC. CANALE D'AGORDO;CANALE D'AGORDO;SCUOLA PRIMO GRADO;BLIC82600G@istruzione.it;VIA RIVIDELLA;BELLUNO;VENETO;www.iccencenighe.it;11.9138001;46.3582484
32013;BLRH02000X;BLRH02000X;D. DOLOMIEU;D. DOLOMIEU;LONGARONE;IST PROF PER I SERVIZI ALBERGHIERI E RISTORAZIONE;BLRH02000X@istruzione.it;VIA RIVALTA 50;BELLUNO;VENETO;www.alberghiero-longarone.it;12.30264;46.2706
37023;VRIC815005;VREE815039;IC GREZZANA;DOMENICO DA LUGO;GREZZANA;SCUOLA PRIMARIA;VRIC815005@istruzione.it;VIA MONS. FONTANA 6;VERONA;VENETO;www.grezzanascuole.gov.it;10.99069;45.5746899
45021;ROIC816004;ROMM816015;BADIA POLESINE;G.GHIRARDINI - BADIA POLESINE;BADIA POLESINE;SCUOLA PRIMO GRADO;ROIC816004@istruzione.it;VIA MASETTI 455;ROVIGO;VENETO;www.icbadia.gov.it;11.491091;45.0888857
30030;VEIC867006;VEAA867013;I.C. DOLO;PICCOLE TRACCE;DOLO;SCUOLA INFANZIA;VEIC867006@istruzione.it;VIA  BRUSAURA12;VENEZIA;VENETO;www.istitutocomprensivodolo.gov.it;12.0947288;45.4140557
36040;VIIC826007;VIEE826019;IC G.TOALDO - MONTEGALDA;MONTEGALDELLA-CAP.;MONTEGALDELLA;SCUOLA PRIMARIA;VIIC826007@istruzione.it;VIA LAMPERTICO 4;VICENZA;VENETO;www.icsmontegalda.gov.it;11.6659279;45.496446
35013;PDIC896004;PDIC896004;CITTADELLA;CITTADELLA;CITTADELLA;ISTITUTO COMPRENSIVO;PDIC896004@istruzione.it;VIA ANGELO GABRIELLI 32;PADOVA;VENETO;Non Disponibile;11.7759486;45.641797
35136;PDIS02900D;PDTE02951L;I.I.S. P.SCALCERLE-PADOVA;IT SER (S.A.IS SCALCERLE)-PD;PADOVA;ISTITUTO TECNICO PER ATTIVITA' SOCIALI (GIA' ITF);PDIS02900D@istruzione.it;VIA DELLE CAVE N.174;PADOVA;VENETO;www.istituto-scalcerle.it;11.83768;45.4
35016;PDIC82800D;PDMM82801E;PIAZZOLA S. BRENTA L. BELLUDI;L.BELLUDI;PIAZZOLA SUL BRENTA;SCUOLA PRIMO GRADO;PDIC82800D@istruzione.it;VIA DEI CONTARINI 44;PADOVA;VENETO;www.comprensivobelludi.gov.it;11.783182;45.541065
32035;BLIC81900C;BLEE81902G;IC  SANTA GIUSTINA  G. RODARI;SCUOLA ELEMENTARE S. GIUSTINA;SANTA GIUSTINA;SCUOLA PRIMARIA;BLIC81900C@istruzione.it;VIA CAL DE FORMIGA 29;BELLUNO;VENETO;www.rodari.org;12.0406552;46.0801117
31037;TVIC824008;TVMM824019;IC LORIA E CASTELLO DI GODEGO;SMS  LORIA (I.C.);LORIA;SCUOLA PRIMO GRADO;TVIC824008@istruzione.it;VIA     ROMA     30/A;TREVISO;VENETO;www.icloria.org;11.865482;45.728501
31100;TVIC87100T;TVAA87102Q;IC TREVISO 2 SERENA;RODARI;TREVISO;SCUOLA INFANZIA;TVIC87100T@istruzione.it;VIA DALMAZIA;TREVISO;VENETO;www.ic2serenatreviso.gov.it;12.2364;45.6712395
31100;TVIC87100T;TVEE871021;IC TREVISO 2 SERENA;E. DE AMICIS;TREVISO;SCUOLA PRIMARIA;TVIC87100T@istruzione.it;VIA CACCIANIGA 16;TREVISO;VENETO;www.ic2serenatreviso.gov.it;12.2387224;45.6683619
37135;VRIC88200X;VRAA88201R;IC VR 11 BORGO ROMA OVEST;MANIN D. - GENOVESA;VERONA;SCUOLA INFANZIA;VRIC88200X@istruzione.it;VIA GIOVE 1;VERONA;VENETO;http://www.comprensivovr11.gov.it;10.9731546;45.3891714
45024;ROIC810005;ROEE81004A;FIESSO UMBERTIANO;MARCONI GUGLIELMO - FIESSO U.;FIESSO UMBERTIANO;SCUOLA PRIMARIA;ROIC810005@istruzione.it;VIA VERDI 194;ROVIGO;VENETO;icfiessoumbertiano.gov.it;11.6049438;44.9611388
36010;VIIC85200Q;VIEE852052;IC ARSIERO  P.MAROCCO;IC ARSIERO-VELO D'ASTICO;VELO D'ASTICO;SCUOLA PRIMARIA;VIIC85200Q@istruzione.it;PIAZZA IV NOVEMBRE 1;VICENZA;VENETO;www.icarsiero.gov.it;11.45868;45.74756
30010;VEIC833003;VEEE833015;DANIELE  MANIN;D. MANIN - CA' SAVIO;CAVALLINO - TREPORTI;SCUOLA PRIMARIA;VEIC833003@istruzione.it;VIA TREPORTINA 2;VENEZIA;VENETO;www.icmanin.gov.it;12.45668;45.45605
35010;PDIC84200Q;PDEE84203X;DI CURTAROLO E CAMPO S.MARTINO;CAMPO S.MARTINO-MARCONI;CAMPO SAN MARTINO;SCUOLA PRIMARIA;PDIC84200Q@istruzione.it;VIA FORESE 42;PADOVA;VENETO;www.traibanchi.gov.it;11.8113441;45.5462722
35016;PDIS01900V;PDTD019015;I.I.S. ROLANDO DA PIAZZOLA;I.T.C. (S.A. R. DA PIAZZOLA);PIAZZOLA SUL BRENTA;ISTITUTO TECNICO COMMERCIALE;PDIS01900V@istruzione.it;DANTE 4;PADOVA;VENETO;www.rolandodapiazzola.it;11.7758111;45.5416909
31100;TVIC87300D;TVMM87301E;IC TREVISO 4   STEFANINI;SMS STEFANINI TREVISO IC 4;TREVISO;SCUOLA PRIMO GRADO;TVIC87300D@istruzione.it;VIALE III ARMATA;TREVISO;VENETO;www.ic4stefaninigov.it;12.2517993;45.6694065
31040;TVIC85500X;TVEE855023;IC SALGAREDA;GIORGIO COLLARIN;SALGAREDA;SCUOLA PRIMARIA;TVIC85500X@istruzione.it;PIAZZALE CAMILLO CIBIN 10;TREVISO;VENETO;www.icsalgareda.gov.it;12.4950003;45.7053724
37036;VRIC84000T;VRIC84000T;IC S.MARTINO B.A.;IC S.MARTINO B.A.;SAN MARTINO BUON ALBERGO;ISTITUTO COMPRENSIVO;VRIC84000T@istruzione.it;VIA GOTTARDI 2 B;VERONA;VENETO;Non Disponibile;11.1038746;45.4246971
37135;VRIC851008;VREE85103C;IC VR 10 BORGO ROMA EST;DE AMICIS EDMONDO;VERONA;SCUOLA PRIMARIA;VRIC851008@istruzione.it;VIA TOMBETTA 108;VERONA;VENETO;www.icverona10.gov.it;10.99004;45.41797
45034;ROIC803002;ROMM803024;OCCHIOBELLO;R.CATTANEO - CANARO;CANARO;SCUOLA PRIMO GRADO;ROIC803002@istruzione.it;VIA VITTORIO EMENUALE II 26;ROVIGO;VENETO;www.ic-occhiobello.gov.it;11.6962248;45.0461945
37049;VRIC84600R;VRMM84602V;IC VILLA BARTOLOMEA;VILLA BARTOLOMEA - S.GHEDINI;VILLA BARTOLOMEA;SCUOLA PRIMO GRADO;VRIC84600R@istruzione.it;VIA         IV.NOVEMBRE        1;VERONA;VENETO;icvillabartolomea.gov.it;10.9902918;45.4437517
30010;VEIC80800A;VEIC80800A;DIEGO VALERI;DIEGO VALERI;CAMPOLONGO MAGGIORE;ISTITUTO COMPRENSIVO;VEIC80800A@istruzione.it;VIA ROMA 47;VENEZIA;VENETO;Non Disponibile;12.0677102;45.3720031
30035;VEIS02800Q;VERA02801Q;I.I.S. 8 MARZO-LORENZ;I.P.AG. K. LORENZ;MIRANO;IST PROF PER L'AGRICOLTURA E L'AMBIENTE;VEIS02800Q@istruzione.it;VIA TORINO 3;VENEZIA;VENETO;www.8marzolorenz.it;12.1042302;45.4916026
37053;VRIC87100D;VREE87102L;IC SALIZZOLE;G.RODARI CONCAMARISE;CONCAMARISE;SCUOLA PRIMARIA;VRIC87100D@istruzione.it;VIA CAPITELLO;VERONA;VENETO;www.icsalizzole.it;11.2176368;45.2762383
36053;VIIC856003;VIAA856021;IC MONTEBELLO VICENTINO;SAN GIORGIO  SORIO;GAMBELLARA;SCUOLA INFANZIA;VIIC856003@istruzione.it;VIA CASTELLO10;VICENZA;VENETO;www.ic-montebello.gov.it;11.34919;45.45224
30172;VEIS02300L;VEPC02301X;I.I.S. BRUNO-FRANCHETTI;RAIMONDO  FRANCHETTI;VENEZIA;LICEO CLASSICO;VEIS02300L@istruzione.it;CORSO DEL POPOLO N.82;VENEZIA;VENETO;istitutobrunofranchetti.gov.it;12.2412594;45.485704
32100;BLIC831003;BLEE831048;IC  2 BELLUNO;LUIGI DAL PONT Q. CADORE;BELLUNO;SCUOLA PRIMARIA;BLIC831003@istruzione.it;VIA ALPAGO NOVELLO1;BELLUNO;VENETO;www.ic2belluno.it;12.2256837;46.1442031
37045;VRIS01400D;VRTL01451G;G.SILVA-M.RICCI;SERALE PER GEOMETRI;LEGNAGO;ISTITUTO TECNICO PER GEOMETRI;VRIS01400D@istruzione.it;VIA NINO BIXIO 53;VERONA;VENETO;itisilva.it;11.317061;45.20101
37063;VRIS01200T;VRRA01202V;STEFANI - BENTEGODI;STEFANI-BENTEGODI ISOLA DELLA SCALA;ISOLA DELLA SCALA;IST PROF PER L'AGRICOLTURA E L'AMBIENTE;VRIS01200T@istruzione.it;VIA RIMEMBRANZA 53;VERONA;VENETO;www.stefanibentegodi.it;11.0043308;45.2681781
37060;VRIC89600T;VRAA89602Q;IC VIGASIO;RONCOLEVA';TREVENZUOLO;SCUOLA INFANZIA;VRIC89600T@istruzione.it;VIA BATTISTI;VERONA;VENETO;www.istitutocomprensivovigasio.gov.it;10.9095725;45.2504273
35138;PDIS00100N;PDIS00100N;IIS MARCHESI-PADOVA;IIS MARCHESI-PADOVA;PADOVA;ISTITUTO SUPERIORE;PDIS00100N@istruzione.it;VIALE CODALUNGA1;PADOVA;VENETO;Non Disponibile;11.8756317;45.4158537
31020;TVIC83600E;TVEE83602N;IC VAZZOLA;SCUOLA PRIMARIA;VAZZOLA;SCUOLA PRIMARIA;TVIC83600E@istruzione.it;PIAZZA DEI TIGLI;TREVISO;VENETO;www.istitutocomprensivovazzola.it;12.3484068;45.8151175
36061;VIIS021008;VIRI02101X;I.S.  ANDREA SCOTTON;IPSIA ANDREA SCOTTON - BASSANO;BASSANO DEL GRAPPA;IST PROF INDUSTRIA E ARTIGIANATO;VIIS021008@istruzione.it;VIA TRAVETTORE37;VICENZA;VENETO;www.ipsiascotton.it;11.73227;45.75298
30015;VEIC85100L;VEEE85103R;I.C. CHIOGGIA 1;PIER ANTONIO GREGORUTTI;CHIOGGIA;SCUOLA PRIMARIA;VEIC85100L@istruzione.it;CALLE SANTA CROCE 1222;VENEZIA;VENETO;www.chioggia1.gov.it;12.2815427;45.2231169
32020;BLIC82600G;BLAA82601C;IC CENCENIGHE AGORDINO;SCUOLA INFANZIA SAN TOMASO AG;SAN TOMASO AGORDINO;SCUOLA INFANZIA;BLIC82600G@istruzione.it;VIA CELAT;BELLUNO;VENETO;www.iccencenighe.it;11.9731018;46.3801234
36043;VIIC864002;VIMM864013;I.C. CAMISANO VICENTINO;SMS VIRGILIO CAMISANO VICENTINO;CAMISANO VICENTINO;SCUOLA PRIMO GRADO;VIIC864002@istruzione.it;VIA EUROPA N. 45;VICENZA;VENETO;www.ic-camisano.vi.it;11.71472;45.5210099
36023;VIIC834006;VIEE83403A;IC LONGARE BIZIO;LONGARE - CAP.;LONGARE;SCUOLA PRIMARIA;VIIC834006@istruzione.it;VIA G. MARCONI 30;VICENZA;VENETO;www.iclongare.gov.it;11.60763;45.47816
45031;ROIC811001;ROEE811013;COSTA DI ROVIGO;VIA GARIBALDI - ARQUA' POL.;ARQUA' POLESINE;SCUOLA PRIMARIA;ROIC811001@istruzione.it;VIA GARIBALDI;ROVIGO;VENETO;www.iccostadirovigo.it;11.7415807;45.0113813
36078;VIIS001003;VIIS001003;I.I.S.  G.G.TRISSINO;I.I.S.  G.G.TRISSINO;VALDAGNO;ISTITUTO SUPERIORE;VIIS001003@istruzione.it;VIA LUNGO AGNO A. MANZONI 18;VICENZA;VENETO;Non Disponibile;11.303955;45.646398
30121;VEIS01600D;VEIS01600D;FRANCESCO  ALGAROTTI;FRANCESCO  ALGAROTTI;VENEZIA;ISTITUTO SUPERIORE;VEIS01600D@istruzione.it;SESTIERE DI CANNAREGIO N. 349-351;VENEZIA;VENETO;www.itisdavinci.it;12.3353665;45.4863489
30027;VEIS021001;VETL02101N;C. SCARPA - E. MATTEI;CARLO SCARPA;SAN DONA' DI PIAVE;ISTITUTO TECNICO PER GEOMETRI;VEIS021001@istruzione.it;VIA PERUGIA N. 7;VENEZIA;VENETO;veis021001@istruzione.it;12.55245;45.6336895
37053;VRIS00100B;VRPS00101T;LEONARDO  DA VINCI;LEONARDO  DA VINCI;CEREA;LICEO SCIENTIFICO;VRIS00100B@istruzione.it;VIA        GHANDI;VERONA;VENETO;www.davincicerea.gov.it;11.2116239;45.1892323
36100;VIIC86600N;VIAA86601E;IC VICENZA 11- VIA PRATI;IC VICENZA 11  - LAGHETTO;VICENZA;SCUOLA INFANZIA;VIIC86600N@istruzione.it;VIA LAGO DI PUSIANO 13;VICENZA;VENETO;www.ic11viaprati.gov.it;11.5436412;45.5737328
36013;VIIC827003;VIIC827003;IC PIOVENE ROCCHETTE- FOGAZZARO;IC PIOVENE ROCCHETTE- FOGAZZARO;PIOVENE-ROCCHETTE;ISTITUTO COMPRENSIVO;VIIC827003@istruzione.it;VIALE MATTEOTTI N. 8;VICENZA;VENETO;Non Disponibile;11.4338742;45.7625654
30015;VEIC85200C;VEMM85201D;I.C. CHIOGGIA 5;G.GALILEI;CHIOGGIA;SCUOLA PRIMO GRADO;VEIC85200C@istruzione.it;VIALE TIRRENO1;VENEZIA;VENETO;www: comprensivo-chioggia5.GOV.IT;12.2898097;45.2079163
36015;VIIC855007;VIAA855025;I.C.  A. FUSINATO SCHIO;SCHIO- VIA ROVERETO;SCHIO;SCUOLA INFANZIA;VIIC855007@istruzione.it;VIA ROVERETO88;VICENZA;VENETO;www.icfusinato.gov.it;11.34456;45.71622
37036;VRIC84000T;VRAA84004T;IC S.MARTINO B.A.;S.MARTINO B.A. - G. RODARI;SAN MARTINO BUON ALBERGO;SCUOLA INFANZIA;VRIC84000T@istruzione.it;VIA PIAVE 58;VERONA;VENETO;http://nuke.icsanmartinoscuole.it/;11.1048286;45.4238239
36070;VIIC812009;VIMM81201A;IC CASTELGOMBERTO - FERMI;SMS FERMI CASTELGOMBERTO;CASTELGOMBERTO;SCUOLA PRIMO GRADO;VIIC812009@istruzione.it;VIA EUROPA 14;VICENZA;VENETO;www.icfermicast.it;11.3919424;45.5800599
35010;PDIC861005;PDMM861027;DI BORGORICCO;VILLANOVA SEZ. DI BORGORICCO;VILLANOVA DI CAMPOSAMPIERO;SCUOLA PRIMO GRADO;PDIC861005@istruzione.it;VIA        CALTANA;PADOVA;VENETO;http://icborgoricco.net;11.9701524;45.49022
35127;PDIC88500N;PDEE88503T;X IC DI PADOVA STEFANINI;QUATTRO MARTIRI;PADOVA;SCUOLA PRIMARIA;PDIC88500N@istruzione.it;VIA DEL COMMISSARIO30;PADOVA;VENETO;www.10icpadova.gov.it;11.887365;45.3783869
35010;PDIC86500C;PDEE86502G;ISTITUTO COMPR. VIGODARZERE;VIGODARZERE SALETTO MARCONI;VIGODARZERE;SCUOLA PRIMARIA;PDIC86500C@istruzione.it;VIA L. DA VINCI 50;PADOVA;VENETO;www.icvigodarzere.gov.it;11.8386479;45.54624
31029;TVIS00700P;TVTF007017;IS VITTORIO V. CITTA' D.VITTORIA;ITIS (S.C. I.S. VITTORIO);VITTORIO VENETO;ISTITUTO TECNICO INDUSTRIALE;TVIS00700P@istruzione.it;VIA CAVOUR N.1;TREVISO;VENETO;www.iisvittorioveneto.gov.it;12.2955202;45.8855138
31050;TVIC875005;TVEE875039;IC RONCADE;MARCO POLO;RONCADE;SCUOLA PRIMARIA;TVIC875005@istruzione.it;VIA TIEPOLO 6;TREVISO;VENETO;www.icroncade.it;12.1981624;45.7164419
31038;TVIC868002;TVIC868002;I.C. C. CASTELLER;I.C. C. CASTELLER;PAESE;ISTITUTO COMPRENSIVO;TVIC868002@istruzione.it;VIALE PANIZZA N. 4;TREVISO;VENETO;Non Disponibile;12.158918;45.6803279
37014;VRIC837002;VRMM837013;IC CASTELNUOVO DEL GARDA;CASTELNUOVO D.G. A. MONTINI;CASTELNUOVO DEL GARDA;SCUOLA PRIMO GRADO;VRIC837002@istruzione.it;VIALE DEGLI STUDI  N.  1;VERONA;VENETO;www.scuolacastelnuovodg.gov.it;10.7633855;45.4436585
37023;VRIC815005;VREE815017;IC GREZZANA;STALLAVENA;GREZZANA;SCUOLA PRIMARIA;VRIC815005@istruzione.it;VIA TINAZZI 3;VERONA;VENETO;www.grezzanascuole.gov.it;11.0025065;45.5439634
30030;VEIC868002;VEAA86802X;I.C.  LUIGI NONO MIRA  I;MIRA PORTE;MIRA;SCUOLA INFANZIA;VEIC868002@istruzione.it;VIA BERNINI 1;VENEZIA;VENETO;www.istitutocomprensivomira1.gov.it;12.1449946;45.4355055
36050;VIIC82200X;VIMM822022;IST. COMPRENSIVO P. ANTONIBON;SMS CARTIGLIANO;CARTIGLIANO;SCUOLA PRIMO GRADO;VIIC82200X@istruzione.it;VIA  S.PIO X . 29;VICENZA;VENETO;www.comprensivodinove.com;11.6938;45.7109499
36040;VIIC841009;VIEE84102C;IC GALILEI   BRENDOLA;PRIMARIA -IC GALILEI BRENDOLA;BRENDOLA;SCUOLA PRIMARIA;VIIC841009@istruzione.it;VIA DEL DONATORE 20;VICENZA;VENETO;www.icbrendola.gov.it;11.4456845;45.4709178
30027;VEIC82800G;VEEE82801N;LUCIA  SCHIAVINATO;GIOSUE' CARDUCCI-GESCAL;SAN DONA' DI PIAVE;SCUOLA PRIMARIA;VEIC82800G@istruzione.it;VIA ORCALLI  - SAN DONA' DI PIAVE;VENEZIA;VENETO;www.icschiavinato.it;12.5897963;45.6289791
30026;VEIC85800B;VEEE85801D;I.C. GIOVANNI PASCOLI;IPPOLITO NIEVO-CAP.;PORTOGRUARO;SCUOLA PRIMARIA;VEIC85800B@istruzione.it;VIA CAMILLO VALLE N. 15;VENEZIA;VENETO;www.icpascoliportogruaro.it;12.84102;45.77863
32043;BLIC81800L;BLEE81804T;IC CORTINA D'AMPEZZO;DUCA D'AOSTA;CORTINA D'AMPEZZO;SCUOLA PRIMARIA;BLIC81800L@istruzione.it;VIA DEL PARCO 9;BELLUNO;VENETO;www.istitutocomprensivocortina.it;12.1364489;46.5359912
